,ibge_6,igd_m,Intervalo,Classe,codigo_ibge,nome,latitude,longitude
0,353770,99.2,"(95, 100]",7,353770,Piacatu,-21.5921,-50.6003
1,432330,99.13,"(95, 100]",7,432330,Vila Flores,-28.8598,-51.5504
2,431445,98.32,"(95, 100]",7,431445,Pinhal,-27.508,-53.2082
3,352215,97.92,"(95, 100]",7,352215,Itaóca,-24.6393,-48.8413
4,411729,97.67,"(95, 100]",7,411729,Novo Itacolomi,-23.7631,-51.5079
5,431262,97.28,"(95, 100]",7,431262,Muliterno,-28.3253,-51.7697
6,521900,97.0,"(95, 100]",7,521900,Sanclerlândia,-16.197,-50.3124
7,316105,96.63,"(95, 100]",7,316105,São Félix de Minas,-18.5959,-41.4889
8,316050,96.53,"(95, 100]",7,316050,Santo Antônio do Rio Abaixo,-19.2374,-43.2604
9,352550,96.49,"(95, 100]",7,352550,Joanópolis,-22.927,-46.2741
10,250435,96.23,"(95, 100]",7,250435,Caturité,-7.41659,-36.0306
11,220553,96.11,"(95, 100]",7,220553,Jurema,-9.21992,-43.1337
12,291740,96.07,"(95, 100]",7,291740,Jacaraci,-14.8541,-42.4329
13,291735,96.06,"(95, 100]",7,291735,Jaborandi,-13.6071,-44.4255
14,250650,96.04,"(95, 100]",7,250650,Gurjão,-7.24833,-36.4923
15,350120,95.99,"(95, 100]",7,350120,Álvares Florence,-20.3203,-49.9141
16,432215,95.79,"(95, 100]",7,432215,Tunas,-29.1039,-52.9538
17,432163,95.77,"(95, 100]",7,432163,Três Arroios,-27.5003,-52.1448
18,352265,95.76,"(95, 100]",7,352265,Itapirapuã Paulista,-24.572,-49.1661
19,316480,95.73,"(95, 100]",7,316480,São Sebastião do Rio Preto,-19.2959,-43.1757
20,220935,95.66,"(95, 100]",7,220935,Santana do Piauí,-6.94696,-41.5178
21,411180,95.64,"(95, 100]",7,411180,Jacarezinho,-23.1591,-49.9739
22,320495,95.5,"(95, 100]",7,320495,São Roque do Canaã,-19.7411,-40.6526
23,315220,95.39,"(95, 100]",7,315220,Porteirinha,-15.7404,-43.0281
24,432377,95.38,"(95, 100]",7,432377,Westfália,-29.4263,-51.7645
25,291260,95.38,"(95, 100]",7,291260,Ibiquera,-12.6444,-40.9338
26,311320,95.26,"(95, 100]",7,311320,Carandaí,-20.9566,-43.811
27,230410,95.23,"(95, 100]",7,230410,Crateús,-5.16768,-40.6536
28,312140,95.21,"(95, 100]",7,312140,Desterro de Entre Rios,-20.665,-44.3334
29,220415,95.14,"(95, 100]",7,220415,Francisco Macedo,-7.331,-40.788
30,314360,95.13,"(95, 100]",7,314360,Morro da Garça,-18.5356,-44.601
31,420075,95.12,"(95, 100]",7,420075,Alto Bela Vista,-27.4333,-51.9044
32,410590,95.1,"(95, 100]",7,410590,Colorado,-22.8374,-51.9743
33,250570,95.1,"(95, 100]",7,250570,Dona Inês,-6.61566,-35.6205
34,230427,95.05,"(95, 100]",7,230427,Ererê,-6.02751,-38.3461
35,352950,95.05,"(95, 100]",7,352950,Mendonça,-21.1757,-49.5791
36,411030,94.97,"(90, 95]",6,411030,Inajá,-22.7509,-52.1995
37,500110,94.97,"(90, 95]",6,500110,Aquidauana,-20.4666,-55.7868
38,231110,94.96,"(90, 95]",6,231110,Porteiras,-7.52265,-39.114
39,230510,94.92,"(90, 95]",6,230510,Guaramiranga,-4.26248,-38.932
40,241210,94.88,"(90, 95]",6,241210,São João do Sabugi,-6.71387,-37.2027
41,251470,94.88,"(90, 95]",6,251470,São José do Sabugi,-6.76295,-36.7972
42,230290,94.81,"(90, 95]",6,230290,Capistrano,-4.45569,-38.9048
43,410165,94.78,"(90, 95]",6,410165,Arapuã,-24.3132,-51.7856
44,220557,94.75,"(90, 95]",6,220557,Lagoa de São Francisco,-4.38505,-41.5969
45,250939,94.69,"(90, 95]",6,250939,Maturéia,-7.26188,-37.351
46,220173,94.68,"(90, 95]",6,220173,Betânia do Piauí,-8.14376,-40.7989
47,352680,94.64,"(90, 95]",6,352680,Lençóis Paulista,-22.6027,-48.8037
48,352160,94.61,"(90, 95]",6,352160,Irapuru,-21.5684,-51.3472
49,314250,94.56,"(90, 95]",6,314250,Monjolos,-18.3245,-44.118
50,410320,94.51,"(90, 95]",6,410320,Bom Sucesso,-23.7063,-51.7671
51,430583,94.5,"(90, 95]",6,430583,Coqueiro Baixo,-29.1802,-52.0942
52,351580,94.48,"(90, 95]",6,351580,Flora Rica,-21.6727,-51.3821
53,431235,94.46,"(90, 95]",6,431235,Montauri,-28.6462,-52.0767
54,431513,94.44,"(90, 95]",6,431513,Pouso Novo,-29.1738,-52.2136
55,251203,94.41,"(90, 95]",6,251203,Poço Dantas,-6.39876,-38.4909
56,355050,94.35,"(90, 95]",6,355050,São Pedro do Turvo,-22.7453,-49.7428
57,316695,94.34,"(90, 95]",6,316695,Serranópolis de Minas,-15.8176,-42.8732
58,220965,94.34,"(90, 95]",6,220965,São Francisco de Assis do Piauí,-8.23599,-41.6873
59,521600,94.22,"(90, 95]",6,521600,Panamá,-18.1783,-49.355
60,241490,94.21,"(90, 95]",6,241490,Viçosa,-5.98253,-37.9462
61,350630,94.17,"(90, 95]",6,350630,Bernardino de Campos,-23.0164,-49.4679
62,411170,94.13,"(90, 95]",6,411170,Jaboti,-23.7435,-50.0729
63,420770,94.12,"(90, 95]",6,420770,Ipumirim,-27.0772,-52.1289
64,411910,94.04,"(90, 95]",6,411910,Piên,-26.0965,-49.4336
65,312590,94.03,"(90, 95]",6,312590,Ferros,-19.2343,-43.0192
66,353100,94.02,"(90, 95]",6,353100,Monções,-20.8509,-50.0975
67,315310,94.0,"(90, 95]",6,315310,Presidente Bernardes,-20.7656,-43.1895
68,420285,93.97,"(90, 95]",6,420285,Braço do Trombudo,-27.3586,-49.8821
69,251590,93.96,"(90, 95]",6,251590,Serraria,-6.81569,-35.6282
70,410773,93.95,"(90, 95]",6,410773,Fernandes Pinheiro,-25.4107,-50.5456
71,430462,93.95,"(90, 95]",6,430462,Capão Bonito do Sul,-28.1254,-51.3961
72,221170,93.93,"(90, 95]",6,221170,Wall Ferraz,-7.23151,-41.905
73,150560,93.77,"(90, 95]",6,150560,Peixe-Boi,-1.19382,-47.324
74,230435,93.75,"(90, 95]",6,230435,Forquilha,-3.79945,-40.2634
75,432026,93.72,"(90, 95]",6,432026,Segredo,-29.3523,-52.9767
76,230423,93.69,"(90, 95]",6,230423,Croatá,-4.40481,-40.9022
77,420005,93.68,"(90, 95]",6,420005,Abdon Batista,-27.6126,-51.0233
78,250950,93.68,"(90, 95]",6,250950,Montadas,-7.08848,-35.9592
79,230837,93.67,"(90, 95]",6,230837,Miraíma,-3.56867,-39.9663
80,230350,93.67,"(90, 95]",6,230350,Cascavel,-4.12967,-38.2412
81,520910,93.63,"(90, 95]",6,520910,Goiatuba,-18.0105,-49.3658
82,430957,93.61,"(90, 95]",6,430957,Herveiras,-29.4552,-52.6553
83,421315,93.59,"(90, 95]",6,421315,Planalto Alegre,-27.0704,-52.867
84,421825,93.57,"(90, 95]",6,421825,Timbó Grande,-26.6127,-50.6607
85,313925,93.55,"(90, 95]",6,313925,Mamonas,-15.0479,-42.9469
86,291140,93.55,"(90, 95]",6,291140,Glória,-9.34382,-38.2544
87,230533,93.55,"(90, 95]",6,230533,Ibicuitinga,-4.96999,-38.6362
88,292303,93.51,"(90, 95]",6,292303,Novo Horizonte,-12.8083,-42.1682
89,211285,93.5,"(90, 95]",6,211285,Vila Nova dos Martírios,-5.18889,-48.1336
90,351770,93.48,"(90, 95]",6,351770,Guará,-20.4302,-47.8236
91,520670,93.41,"(90, 95]",6,520670,Damianópolis,-14.5604,-46.178
92,421625,93.4,"(90, 95]",6,421625,São João do Oeste,-27.0984,-53.5977
93,250403,93.4,"(90, 95]",6,250403,Capim,-6.91624,-35.1673
94,290300,93.39,"(90, 95]",6,290300,Barra do Mendes,-11.81,-42.059
95,430511,93.33,"(90, 95]",6,430511,Centenário,-27.7615,-51.9984
96,410410,93.32,"(90, 95]",6,410410,Campo do Tenente,-25.98,-49.6844
97,432180,93.31,"(90, 95]",6,432180,Três de Maio,-27.78,-54.2357
98,250933,93.31,"(90, 95]",6,250933,Matinhas,-7.12486,-35.7669
99,221050,93.31,"(90, 95]",6,221050,São Pedro do Piauí,-5.92078,-42.7192
100,310550,93.25,"(90, 95]",6,310550,Barão de Monte Alto,-21.2444,-42.2372
101,316610,93.24,"(90, 95]",6,316610,Senhora do Porto,-18.8909,-43.0799
102,320150,93.24,"(90, 95]",6,320150,Colatina,-19.5493,-40.6269
103,231050,93.22,"(90, 95]",6,231050,Pedra Branca,-5.45341,-39.7078
104,292240,93.19,"(90, 95]",6,292240,Mutuípe,-13.2284,-39.5044
105,251700,93.17,"(90, 95]",6,251700,Umbuzeiro,-7.69199,-35.6582
106,350790,93.14,"(90, 95]",6,350790,Brotas,-22.2795,-48.1251
107,210905,93.1,"(90, 95]",6,210905,Porto Rico do Maranhão,-1.85925,-44.5842
108,315870,93.1,"(90, 95]",6,315870,Santana do Garambéu,-21.5983,-44.105
109,352800,93.1,"(90, 95]",6,352800,Macatuba,-22.5002,-48.7102
110,352130,93.09,"(90, 95]",6,352130,Ipuã,-20.4438,-48.0129
111,313110,93.08,"(90, 95]",6,313110,Inimutaba,-18.7271,-44.3584
112,410130,93.08,"(90, 95]",6,410130,Antônio Olinto,-25.9804,-50.1972
113,221063,93.07,"(90, 95]",6,221063,Sebastião Leal,-7.56803,-44.06
114,250720,93.07,"(90, 95]",6,250720,Itatuba,-7.38115,-35.638
115,230430,93.04,"(90, 95]",6,230430,Farias Brito,-6.92146,-39.5651
116,410080,93.04,"(90, 95]",6,410080,Alvorada do Sul,-22.7813,-51.2297
117,411530,93.02,"(90, 95]",6,411530,Mariópolis,-26.355,-52.5532
118,171900,93.02,"(90, 95]",6,171900,Santa Tereza do Tocantins,-10.2746,-47.8033
119,354300,93.0,"(90, 95]",6,354300,Ribeirão Branco,-24.2206,-48.7635
120,210210,93.0,"(90, 95]",6,210210,Brejo,-3.67796,-42.7527
121,520320,92.97,"(90, 95]",6,520320,Barro Alto,-14.9658,-48.9086
122,411435,92.97,"(90, 95]",6,411435,Manfrinópolis,-26.1441,-53.3113
123,411727,92.95,"(90, 95]",6,411727,Nova Tebas,-24.438,-51.9454
124,220590,92.94,"(90, 95]",6,220590,Manoel Emídio,-8.01234,-43.8755
125,231380,92.93,"(90, 95]",6,231380,Uruburetama,-3.62316,-39.5107
126,230920,92.93,"(90, 95]",6,230920,Nova Olinda,-7.08415,-39.6713
127,230610,92.92,"(90, 95]",6,230610,Irauçuba,-3.74737,-39.7843
128,352650,92.92,"(90, 95]",6,352650,Lavínia,-21.1639,-51.0412
129,351170,92.92,"(90, 95]",6,351170,Charqueada,-22.5096,-47.7755
130,312010,92.9,"(90, 95]",6,312010,Couto de Magalhães de Minas,-18.0727,-43.4648
131,351370,92.88,"(90, 95]",6,351370,Descalvado,-21.9002,-47.6181
132,230130,92.85,"(90, 95]",6,230130,Araripe,-7.21319,-40.1359
133,231130,92.85,"(90, 95]",6,231130,Quixadá,-4.9663,-39.0155
134,230600,92.83,"(90, 95]",6,230600,Iracema,-5.8124,-38.2919
135,354560,92.82,"(90, 95]",6,354560,Santa Adélia,-21.2427,-48.8063
136,312150,92.81,"(90, 95]",6,312150,Desterro do Melo,-21.143,-43.5178
137,241070,92.79,"(90, 95]",6,241070,Riacho da Cruz,-5.92654,-37.949
138,316640,92.79,"(90, 95]",6,316640,Seritinga,-21.9134,-44.518
139,351730,92.77,"(90, 95]",6,351730,Guaimbê,-21.9091,-49.8986
140,312270,92.76,"(90, 95]",6,312270,Dom Silvério,-20.1627,-42.9627
141,220667,92.74,"(90, 95]",6,220667,Morro do Chapéu do Piauí,-3.73337,-42.3024
142,430845,92.72,"(90, 95]",6,430845,Fortaleza dos Valos,-28.7986,-53.2249
143,352580,92.7,"(90, 95]",6,352580,Júlio Mesquita,-22.0112,-49.7873
144,351250,92.7,"(90, 95]",6,351250,Coroados,-21.3521,-50.2859
145,171888,92.7,"(90, 95]",6,171888,Santa Maria do Tocantins,-8.8046,-47.7887
146,432067,92.69,"(90, 95]",6,432067,Sinimbu,-29.5357,-52.5304
147,411260,92.69,"(90, 95]",6,411260,Jardim Olinda,-22.5523,-52.0503
148,293105,92.69,"(90, 95]",6,293105,Tanque Novo,-13.5485,-42.4934
149,421270,92.69,"(90, 95]",6,421270,Petrolândia,-27.5346,-49.6937
150,230310,92.69,"(90, 95]",6,230310,Cariré,-3.94858,-40.476
151,221035,92.67,"(90, 95]",6,221035,São Lourenço do Piauí,-9.16463,-42.5496
152,220090,92.67,"(90, 95]",6,220090,Aroazes,-6.11022,-41.7822
153,230330,92.66,"(90, 95]",6,230330,Cariús,-6.52428,-39.4916
154,312540,92.64,"(90, 95]",6,312540,Felício dos Santos,-18.0755,-43.2422
155,230365,92.64,"(90, 95]",6,230365,Catunda,-4.64336,-40.2
156,130068,92.62,"(90, 95]",6,130068,Boa Vista do Ramos,-2.97409,-57.5873
157,240690,92.61,"(90, 95]",6,240690,Lucrécia,-6.10525,-37.8134
158,510160,92.59,"(90, 95]",6,510160,Barão de Melgaço,-16.2067,-55.9623
159,210220,92.59,"(90, 95]",6,210220,Buriti,-3.94169,-42.9179
160,431620,92.59,"(90, 95]",6,431620,Rondinha,-27.8315,-52.9081
161,230700,92.58,"(90, 95]",6,230700,Jaguaruana,-4.83151,-37.781
162,316140,92.56,"(90, 95]",6,316140,São Francisco do Glória,-20.7923,-42.2673
163,230590,92.56,"(90, 95]",6,230590,Ipueiras,-4.53802,-40.7118
164,310300,92.55,"(90, 95]",6,310300,Antônio Dias,-19.6491,-42.8732
165,220192,92.54,"(90, 95]",6,220192,Bonfim do Piauí,-9.1605,-42.8865
166,221037,92.53,"(90, 95]",6,221037,São Luis do Piauí,-6.81936,-41.3175
167,521645,92.51,"(90, 95]",6,521645,Perolândia,-17.5258,-52.065
168,410020,92.5,"(90, 95]",6,410020,Adrianópolis,-24.6606,-48.9922
169,432370,92.48,"(90, 95]",6,432370,Vista Gaúcha,-27.2902,-53.6974
170,150210,92.47,"(90, 95]",6,150210,Cametá,-2.24295,-49.4979
171,353880,92.46,"(90, 95]",6,353880,Piraju,-23.1981,-49.3803
172,280760,92.45,"(90, 95]",6,280760,Umbaúba,-11.3809,-37.6623
173,221005,92.44,"(90, 95]",6,221005,São José do Divino,-3.81411,-41.8308
174,355535,92.44,"(90, 95]",6,355535,Ubarana,-21.165,-49.7198
175,220630,92.42,"(90, 95]",6,220630,Miguel Leão,-5.68077,-42.7436
176,292030,92.41,"(90, 95]",6,292030,Malhada de Pedras,-14.3847,-41.8842
177,353990,92.39,"(90, 95]",6,353990,Poloni,-20.7829,-49.8258
178,430220,92.39,"(90, 95]",6,430220,Boa Vista do Buricá,-27.6693,-54.1082
179,312760,92.39,"(90, 95]",6,312760,Gouveia,-18.4519,-43.7423
180,520995,92.38,"(90, 95]",6,520995,Indiara,-17.1387,-49.9862
181,280040,92.38,"(90, 95]",6,280040,Arauá,-11.2614,-37.6201
182,410685,92.38,"(90, 95]",6,410685,Cruzmaltina,-24.0132,-51.4563
183,330115,92.37,"(90, 95]",6,330115,Cardoso Moreira,-21.4846,-41.6165
184,411870,92.37,"(90, 95]",6,411870,Paulo Frontin,-26.0466,-50.8304
185,431910,92.37,"(90, 95]",6,431910,São Martinho,-27.7112,-53.9699
186,280170,92.37,"(90, 95]",6,280170,Cristinápolis,-11.4668,-37.7585
187,292430,92.36,"(90, 95]",6,292430,Piatã,-13.1465,-41.7702
188,230770,92.34,"(90, 95]",6,230770,Maranguape,-3.89143,-38.6829
189,251310,92.33,"(90, 95]",6,251310,Salgado de São Félix,-7.35337,-35.4305
190,280370,92.33,"(90, 95]",6,280370,Macambira,-10.6619,-37.5413
191,150300,92.32,"(90, 95]",6,150300,Faro,-2.16805,-56.7405
192,210055,92.32,"(90, 95]",6,210055,Amapá do Maranhão,-1.67524,-46.0024
193,230140,92.32,"(90, 95]",6,230140,Aratuba,-4.41229,-39.0471
194,315800,92.32,"(90, 95]",6,315800,Santa Maria de Itabira,-19.4431,-43.1064
195,292330,92.31,"(90, 95]",6,292330,Ouriçangas,-12.0175,-38.6166
196,421620,92.3,"(90, 95]",6,421620,São Francisco do Sul,-26.2579,-48.6344
197,251640,92.27,"(90, 95]",6,251640,Tacima,-6.48759,-35.6367
198,352930,92.27,"(90, 95]",6,352930,Matão,-21.6025,-48.364
199,350740,92.27,"(90, 95]",6,350740,Borborema,-21.6214,-49.0741
200,251440,92.26,"(90, 95]",6,251440,São José de Espinharas,-6.83974,-37.3214
201,250205,92.25,"(90, 95]",6,250205,Bernardino Batista,-6.44572,-38.5521
202,350070,92.24,"(90, 95]",6,350070,Agudos,-22.4694,-48.9863
203,270180,92.24,"(90, 95]",6,270180,Carneiros,-9.48476,-37.3773
204,293200,92.23,"(90, 95]",6,293200,Uauá,-9.83325,-39.4794
205,521805,92.23,"(90, 95]",6,521805,Porteirão,-17.8143,-50.1653
206,230560,92.22,"(90, 95]",6,230560,Independência,-5.38789,-40.3085
207,420840,92.21,"(90, 95]",6,420840,Itapiranga,-27.1659,-53.7166
208,421240,92.21,"(90, 95]",6,421240,Pedras Grandes,-28.4339,-49.1949
209,311660,92.21,"(90, 95]",6,311660,Cláudio,-20.4437,-44.7673
210,311760,92.2,"(90, 95]",6,311760,Conceição do Pará,-19.7456,-44.8945
211,250135,92.2,"(90, 95]",6,250135,Assunção,-7.07231,-36.725
212,241415,92.19,"(90, 95]",6,241415,Tenente Laurentino Cruz,-6.1378,-36.7135
213,250073,92.19,"(90, 95]",6,250073,Amparo,-7.55502,-37.0628
214,230980,92.18,"(90, 95]",6,230980,Pacoti,-4.22492,-38.922
215,312550,92.16,"(90, 95]",6,312550,São Gonçalo do Rio Preto,-18.0025,-43.3854
216,220217,92.16,"(90, 95]",6,220217,Campo Largo do Piauí,-3.80441,-42.64
217,240290,92.15,"(90, 95]",6,240290,Coronel João Pessoa,-6.24974,-38.4441
218,292145,92.14,"(90, 95]",6,292145,Mirante,-14.2385,-40.7718
219,220793,92.12,"(90, 95]",6,220793,Pedro Laurentino,-8.06807,-42.2847
220,251260,92.11,"(90, 95]",6,251260,Quixabá,-7.0224,-37.1458
221,251400,92.1,"(90, 95]",6,251400,São João do Cariri,-7.38168,-36.5345
222,412110,92.1,"(90, 95]",6,412110,Quinta do Sol,-23.8533,-52.1309
223,211280,92.1,"(90, 95]",6,211280,Viana,-3.20451,-44.9912
224,251455,92.09,"(90, 95]",6,251455,São José de Princesa,-7.73633,-38.0894
225,220208,92.09,"(90, 95]",6,220208,Cajueiro da Praia,-2.93111,-41.3408
226,310330,92.08,"(90, 95]",6,310330,Aracitaba,-21.3446,-43.3736
227,280250,92.07,"(90, 95]",6,280250,General Maynard,-10.6835,-36.9838
228,353286,92.07,"(90, 95]",6,353286,Nova Castilho,-20.7615,-50.3477
229,432230,92.06,"(90, 95]",6,432230,Tuparendi,-27.7598,-54.4814
230,170410,92.06,"(90, 95]",6,170410,Centenário,-8.96103,-47.3304
231,350470,92.05,"(90, 95]",6,350470,Balbinos,-21.8963,-49.3619
232,354085,92.05,"(90, 95]",6,354085,Pracinha,-21.8496,-51.0868
233,520235,92.04,"(90, 95]",6,520235,Arenópolis,-16.3837,-51.5563
234,410980,92.03,"(90, 95]",6,410980,Ibiporã,-23.2659,-51.0522
235,220950,92.03,"(90, 95]",6,220950,Santo Inácio do Piauí,-7.42072,-41.9063
236,355300,92.03,"(90, 95]",6,355300,Taguaí,-23.4452,-49.4024
237,421125,92.03,"(90, 95]",6,421125,Morro Grande,-28.8006,-49.7214
238,221080,92.02,"(90, 95]",6,221080,Simplício Mendes,-7.85294,-41.9075
239,313290,92.02,"(90, 95]",6,313290,Itamogi,-21.0758,-47.046
240,230650,92.02,"(90, 95]",6,230650,Itapiúna,-4.55516,-38.9281
241,230395,92.02,"(90, 95]",6,230395,Chorozinho,-4.28873,-38.4986
242,230400,92.02,"(90, 95]",6,230400,Coreaú,-3.5415,-40.6587
243,220342,92.01,"(90, 95]",6,220342,Domingos Mourão,-4.2495,-41.2683
244,230495,92.01,"(90, 95]",6,230495,Guaiúba,-4.04057,-38.6404
245,230020,92.0,"(90, 95]",6,230020,Acaraú,-2.88769,-40.1183
246,220551,91.99,"(90, 95]",6,220551,Juazeiro do Piauí,-5.17459,-41.6976
247,311810,91.98,"(90, 95]",6,311810,Congonhas do Norte,-18.8021,-43.6767
248,251110,91.98,"(90, 95]",6,251110,Pedra Lavrada,-6.74997,-36.4758
249,251540,91.97,"(90, 95]",6,251540,São Vicente do Seridó,-6.85426,-36.4122
250,220253,91.96,"(90, 95]",6,220253,Caraúbas do Piauí,-3.47525,-41.8425
251,130300,91.96,"(90, 95]",6,130300,Nhamundá,-2.20793,-56.7112
252,170720,91.94,"(90, 95]",6,170720,Dois Irmãos do Tocantins,-9.25534,-49.0638
253,230075,91.93,"(90, 95]",6,230075,Amontada,-3.36017,-39.8288
254,251390,91.92,"(90, 95]",6,251390,São Bento,-6.48529,-37.4488
255,430222,91.92,"(90, 95]",6,430222,Boa Vista do Cadeado,-28.5791,-53.8108
256,432057,91.9,"(90, 95]",6,432057,Sete de Setembro,-28.1362,-54.4637
257,280410,91.9,"(90, 95]",6,280410,Moita Bonita,-10.5769,-37.3512
258,431775,91.9,"(90, 95]",6,431775,Santo Antônio do Planalto,-28.403,-52.6992
259,431673,91.89,"(90, 95]",6,431673,Santa Cecília do Sul,-28.1609,-51.9279
260,316265,91.88,"(90, 95]",6,316265,São João do Pacuí,-16.5373,-44.5134
261,290050,91.88,"(90, 95]",6,290050,Érico Cardoso,-13.4215,-42.1352
262,355190,91.88,"(90, 95]",6,355190,Severínia,-20.8108,-48.8054
263,220790,91.88,"(90, 95]",6,220790,Pedro II,-4.42585,-41.4482
264,220155,91.88,"(90, 95]",6,220155,Bela Vista do Piauí,-7.98809,-41.8675
265,412635,91.87,"(90, 95]",6,412635,Serranópolis do Iguaçu,-25.3799,-54.0518
266,261360,91.87,"(90, 95]",6,261360,São José do Egito,-7.46945,-37.274
267,241040,91.87,"(90, 95]",6,241040,Pureza,-5.46393,-35.5554
268,250500,91.86,"(90, 95]",6,250500,Cubati,-6.86686,-36.3619
269,313140,91.86,"(90, 95]",6,313140,Ipiaçu,-18.6927,-49.9436
270,230195,91.85,"(90, 95]",6,230195,Barreira,-4.28921,-38.6429
271,430265,91.85,"(90, 95]",6,430265,Brochier,-29.5501,-51.5945
272,220527,91.85,"(90, 95]",6,220527,Jatobá do Piauí,-4.77025,-41.817
273,311070,91.85,"(90, 95]",6,311070,Cambuquira,-21.854,-45.2896
274,220205,91.85,"(90, 95]",6,220205,Cabeceiras do Piauí,-4.4773,-42.3069
275,431344,91.84,"(90, 95]",6,431344,Novo Tiradentes,-27.5649,-53.1837
276,432255,91.83,"(90, 95]",6,432255,Vanini,-28.4758,-51.8447
277,520630,91.83,"(90, 95]",6,520630,Cristianópolis,-17.1987,-48.7034
278,220535,91.81,"(90, 95]",6,220535,João Costa,-8.50736,-42.4264
279,250860,91.81,"(90, 95]",6,250860,Lucena,-6.90258,-34.8748
280,291085,91.79,"(90, 95]",6,291085,Filadélfia,-10.7405,-40.1437
281,420515,91.79,"(90, 95]",6,420515,Doutor Pedrinho,-26.7174,-49.4795
282,221090,91.76,"(90, 95]",6,221090,Socorro do Piauí,-7.86773,-42.4922
283,520680,91.76,"(90, 95]",6,520680,Damolândia,-16.2544,-49.3631
284,520340,91.76,"(90, 95]",6,520340,Bom Jardim de Goiás,-16.2063,-52.1728
285,231200,91.74,"(90, 95]",6,231200,Santana do Acaraú,-3.46144,-40.2118
286,410715,91.74,"(90, 95]",6,410715,Diamante D'Oeste,-24.9419,-54.1052
287,316590,91.74,"(90, 95]",6,316590,Senador Modestino Gonçalves,-17.9465,-43.2172
288,241110,91.73,"(90, 95]",6,241110,Ruy Barbosa,-5.88745,-35.933
289,510810,91.73,"(90, 95]",6,510810,Tesouro,-16.0809,-53.559
290,210980,91.73,"(90, 95]",6,210980,Santa Helena,-2.24426,-45.29
291,220650,91.72,"(90, 95]",6,220650,Monsenhor Hipólito,-6.99275,-41.026
292,313640,91.72,"(90, 95]",6,313640,Joaquim Felício,-17.758,-44.1643
293,410890,91.71,"(90, 95]",6,410890,Guairaçá,-22.932,-52.6906
294,316905,91.71,"(90, 95]",6,316905,Tocos do Moji,-22.3698,-46.0971
295,411925,91.71,"(90, 95]",6,411925,Pinhal de São Bento,-26.0324,-53.482
296,220327,91.7,"(90, 95]",6,220327,Curral Novo do Piauí,-7.8313,-40.8957
297,292975,91.7,"(90, 95]",6,292975,Saubara,-12.7387,-38.7625
298,313550,91.69,"(90, 95]",6,313550,Jequeri,-20.4542,-42.6651
299,230620,91.69,"(90, 95]",6,230620,Itaiçaba,-4.67146,-37.833
300,230120,91.69,"(90, 95]",6,230120,Aracoiaba,-4.36872,-38.8125
301,431310,91.69,"(90, 95]",6,431310,Nova Palma,-29.471,-53.4689
302,432162,91.69,"(90, 95]",6,432162,Travesseiro,-29.2977,-52.0532
303,110006,91.68,"(90, 95]",6,110006,Colorado do Oeste,-13.1174,-60.5454
304,251300,91.68,"(90, 95]",6,251300,Salgadinho,-7.10098,-36.8458
305,421340,91.68,"(90, 95]",6,421340,Ponte Serrada,-26.8733,-52.0112
306,230763,91.67,"(90, 95]",6,230763,Madalena,-4.84601,-39.5725
307,316600,91.67,"(90, 95]",6,316600,Senhora de Oliveira,-20.7972,-43.3394
308,411340,91.67,"(90, 95]",6,411340,Leópolis,-23.0818,-50.7511
309,412785,91.67,"(90, 95]",6,412785,Três Barras do Paraná,-25.4185,-53.1833
310,241300,91.66,"(90, 95]",6,241300,São Vicente,-6.21893,-36.6827
311,313590,91.66,"(90, 95]",6,313590,Jesuânia,-21.9887,-45.2911
312,220910,91.66,"(90, 95]",6,220910,Santa Cruz do Piauí,-7.1785,-41.7609
313,421568,91.65,"(90, 95]",6,421568,Santa Terezinha do Progresso,-26.624,-53.1997
314,240890,91.64,"(90, 95]",6,240890,Parelhas,-6.68491,-36.6566
315,351490,91.64,"(90, 95]",6,351490,Elias Fausto,-23.0428,-47.3682
316,352600,91.64,"(90, 95]",6,352600,Junqueirópolis,-21.5103,-51.4342
317,220635,91.64,"(90, 95]",6,220635,Milton Brandão,-4.68295,-41.4173
318,315530,91.64,"(90, 95]",6,315530,Rio Manso,-20.2666,-44.3069
319,231310,91.63,"(90, 95]",6,231310,Tabuleiro do Norte,-5.24353,-38.1282
320,354170,91.63,"(90, 95]",6,354170,Quatá,-22.2456,-50.6966
321,220271,91.62,"(90, 95]",6,220271,Cocal de Telha,-4.5571,-41.9587
322,260230,91.62,"(90, 95]",6,260230,Bonito,-8.47163,-35.7292
323,231150,91.62,"(90, 95]",6,231150,Quixeré,-5.07148,-37.9802
324,260430,91.61,"(90, 95]",6,260430,Cedro,-7.71179,-39.2367
325,312070,91.61,"(90, 95]",6,312070,Cruzeiro da Fortaleza,-18.944,-46.6669
326,220940,91.6,"(90, 95]",6,220940,Santo Antônio de Lisboa,-6.98676,-41.2252
327,352044,91.59,"(90, 95]",6,352044,Ilha Solteira,-20.4326,-51.3426
328,353380,91.58,"(90, 95]",6,353380,Óleo,-22.9435,-49.3419
329,430720,91.58,"(90, 95]",6,430720,Erval Grande,-27.3926,-52.574
330,313835,91.57,"(90, 95]",6,313835,Leme do Prado,-17.0793,-42.6936
331,350480,91.57,"(90, 95]",6,350480,Bálsamo,-20.7348,-49.5865
332,230790,91.55,"(90, 95]",6,230790,Martinópole,-3.2252,-40.6896
333,231410,91.55,"(90, 95]",6,231410,Viçosa do Ceará,-3.5667,-41.0916
334,430461,91.55,"(90, 95]",6,430461,Canudos do Vale,-29.3271,-52.2374
335,291010,91.54,"(90, 95]",6,291010,Dom Basílio,-13.7565,-41.7677
336,431930,91.54,"(90, 95]",6,431930,São Paulo das Missões,-28.0195,-54.9404
337,220777,91.54,"(90, 95]",6,220777,Patos do Piauí,-7.67231,-41.2408
338,410860,91.53,"(90, 95]",6,410860,Goioerê,-24.1835,-53.0248
339,316294,91.53,"(90, 95]",6,316294,São José da Barra,-20.7178,-46.313
340,412860,91.52,"(90, 95]",6,412860,Verê,-25.8772,-52.9051
341,352885,91.51,"(90, 95]",6,352885,Marapoama,-21.2587,-49.13
342,240980,91.51,"(90, 95]",6,240980,Pedro Velho,-6.4356,-35.2195
343,251690,91.5,"(90, 95]",6,251690,Uiraúna,-6.51504,-38.4128
344,251570,91.5,"(90, 95]",6,251570,Serra Grande,-7.20957,-38.3647
345,250190,91.49,"(90, 95]",6,250190,Belém,-6.74261,-35.5166
346,230950,91.48,"(90, 95]",6,230950,Orós,-6.25182,-38.9053
347,314875,91.48,"(90, 95]",6,314875,Pedra Bonita,-20.5219,-42.3304
348,221095,91.48,"(90, 95]",6,221095,Tamboril do Piauí,-8.40937,-42.9211
349,291590,91.47,"(90, 95]",6,291590,Itanagra,-12.2614,-38.0436
350,240040,91.47,"(90, 95]",6,240040,Água Nova,-6.20351,-38.2941
351,351280,91.47,"(90, 95]",6,351280,Cosmópolis,-22.6419,-47.1926
352,291200,91.46,"(90, 95]",6,291200,Ibiassucê,-14.2711,-42.257
353,352660,91.45,"(90, 95]",6,352660,Lavrinhas,-22.57,-44.9024
354,420785,91.43,"(90, 95]",6,420785,Irati,-26.6539,-52.8955
355,260830,91.43,"(90, 95]",6,260830,Jupi,-8.70904,-36.4126
356,430170,91.43,"(90, 95]",6,430170,Barão de Cotegipe,-27.6208,-52.3798
357,421680,91.43,"(90, 95]",6,421680,São José do Cerrito,-27.6602,-50.5733
358,230500,91.43,"(90, 95]",6,230500,Guaraciaba do Norte,-4.15814,-40.7476
359,410785,91.42,"(90, 95]",6,410785,Flor da Serra do Sul,-26.2523,-53.3092
360,260390,91.42,"(90, 95]",6,260390,Carnaíba,-7.79342,-37.7946
361,250415,91.42,"(90, 95]",6,250415,Casserengue,-6.77954,-35.8179
362,431861,91.42,"(90, 95]",6,431861,São José do Sul,-29.5448,-51.4821
363,260915,91.41,"(90, 95]",6,260915,Manari,-8.9649,-37.6313
364,412620,91.41,"(90, 95]",6,412620,Sapopema,-23.9078,-50.5801
365,270900,91.4,"(90, 95]",6,270900,Tanque d'Arca,-9.53379,-36.4366
366,230428,91.4,"(90, 95]",6,230428,Eusébio,-3.8925,-38.4559
367,520490,91.4,"(90, 95]",6,520490,Campos Belos,-13.035,-46.7681
368,220440,91.4,"(90, 95]",6,220440,Gilbués,-9.83001,-45.3423
369,315500,91.39,"(90, 95]",6,315500,Rio Doce,-20.2412,-42.8995
370,412015,91.39,"(90, 95]",6,412015,Porto Barreiro,-25.5477,-52.4067
371,320506,91.38,"(90, 95]",6,320506,Venda Nova do Imigrante,-20.327,-41.1355
372,354515,91.37,"(90, 95]",6,354515,Saltinho,-22.8442,-47.6754
373,231100,91.37,"(90, 95]",6,231100,Poranga,-4.74672,-40.9205
374,410910,91.37,"(90, 95]",6,410910,Guaporema,-23.3402,-52.7786
375,431075,91.36,"(90, 95]",6,431075,Ivorá,-29.5232,-53.5842
376,292960,91.36,"(90, 95]",6,292960,Sapeaçu,-12.7208,-39.1824
377,431142,91.36,"(90, 95]",6,431142,Lajeado do Bugre,-27.6913,-53.1818
378,316320,91.35,"(90, 95]",6,316320,São José do Alegre,-22.3243,-45.5258
379,293160,91.34,"(90, 95]",6,293160,Teolândia,-13.5896,-39.484
380,220027,91.33,"(90, 95]",6,220027,Alegrete do Piauí,-7.24196,-40.8566
381,312490,91.33,"(90, 95]",6,312490,Eugenópolis,-21.1002,-42.1878
382,250870,91.32,"(90, 95]",6,250870,Mãe d'Água,-7.25201,-37.4322
383,432270,91.32,"(90, 95]",6,432270,Vera Cruz,-29.7184,-52.5152
384,432253,91.31,"(90, 95]",6,432253,Vale do Sol,-29.5967,-52.6839
385,130440,91.31,"(90, 95]",6,130440,Urucurituba,-3.12841,-58.1496
386,410290,91.31,"(90, 95]",6,410290,Bituruna,-26.1607,-51.5518
387,351540,91.3,"(90, 95]",6,351540,Fartura,-23.3916,-49.5124
388,150660,91.3,"(90, 95]",6,150660,Santa Maria do Pará,-1.35392,-47.5712
389,412830,91.3,"(90, 95]",6,412830,Uniflor,-23.0868,-52.1573
390,316225,91.29,"(90, 95]",6,316225,São João da Lagoa,-16.8455,-44.3507
391,352570,91.28,"(90, 95]",6,352570,José Bonifácio,-21.0551,-49.6892
392,230426,91.28,"(90, 95]",6,230426,Deputado Irapuan Pinheiro,-5.91485,-39.257
393,316730,91.28,"(90, 95]",6,316730,Silveirânia,-21.1615,-43.2128
394,291030,91.27,"(90, 95]",6,291030,Elísio Medrado,-12.9417,-39.5191
395,354350,91.25,"(90, 95]",6,354350,Riversul,-23.829,-49.429
396,240320,91.24,"(90, 95]",6,240320,Doutor Severiano,-6.08082,-38.3794
397,220980,91.24,"(90, 95]",6,220980,São Gonçalo do Piauí,-5.99393,-42.7095
398,411065,91.23,"(90, 95]",6,411065,Iracema do Oeste,-24.4262,-53.3528
399,430045,91.23,"(90, 95]",6,430045,Alegria,-27.8345,-54.0557
400,231010,91.23,"(90, 95]",6,231010,Palmácia,-4.13831,-38.8446
401,220198,91.22,"(90, 95]",6,220198,Brejo do Piauí,-8.20314,-42.8229
402,420895,91.22,"(90, 95]",6,420895,Jardinópolis,-26.7191,-52.8625
403,315480,91.21,"(90, 95]",6,315480,Rio Acima,-20.0876,-43.7878
404,352115,91.2,"(90, 95]",6,352115,Ipiguá,-20.6557,-49.3842
405,310290,91.2,"(90, 95]",6,310290,Antônio Carlos,-21.321,-43.7451
406,315010,91.19,"(90, 95]",6,315010,Piau,-21.5096,-43.313
407,130423,91.18,"(90, 95]",6,130423,Tonantins,-2.86582,-67.7919
408,430695,91.18,"(90, 95]",6,430695,Entre Rios do Sul,-27.5298,-52.7347
409,220400,91.16,"(90, 95]",6,220400,Francinópolis,-6.39334,-42.2591
410,220360,91.16,"(90, 95]",6,220360,Eliseu Martins,-8.09629,-43.6705
411,290485,91.15,"(90, 95]",6,290485,Cabaceiras do Paraguaçu,-12.5317,-39.1902
412,420800,91.14,"(90, 95]",6,420800,Itá,-27.2907,-52.3212
413,270910,91.13,"(90, 95]",6,270910,Taquarana,-9.64529,-36.4928
414,351905,91.13,"(90, 95]",6,351905,Holambra,-22.6405,-47.0487
415,313868,91.11,"(90, 95]",6,313868,Luislândia,-16.1095,-44.5886
416,411080,91.1,"(90, 95]",6,411080,Iretama,-24.4253,-52.1012
417,220995,91.1,"(90, 95]",6,220995,São João da Varjota,-6.94082,-41.8889
418,411830,91.1,"(90, 95]",6,411830,Paranapoema,-22.6412,-52.0905
419,317107,91.09,"(90, 95]",6,317107,Veredinha,-17.3974,-42.7307
420,431220,91.09,"(90, 95]",6,431220,Maximiliano de Almeida,-27.6325,-51.802
421,432375,91.09,"(90, 95]",6,432375,Vitória das Missões,-28.3516,-54.504
422,251120,91.08,"(90, 95]",6,251120,Pedras de Fogo,-7.39107,-35.1065
423,230630,91.07,"(90, 95]",6,230630,Itapajé,-3.68314,-39.5855
424,250230,91.07,"(90, 95]",6,250230,Bom Sucesso,-6.44176,-37.9234
425,230890,91.07,"(90, 95]",6,230890,Morrinhos,-3.23426,-40.1233
426,431164,91.05,"(90, 95]",6,431164,Linha Nova,-29.4679,-51.2003
427,412640,91.05,"(90, 95]",6,412640,Sertaneja,-23.0361,-50.8317
428,311220,91.04,"(90, 95]",6,311220,Capela Nova,-20.9179,-43.622
429,350500,91.04,"(90, 95]",6,350500,Barão de Antonina,-23.6284,-49.5634
430,352170,91.03,"(90, 95]",6,352170,Itaberá,-23.8638,-49.14
431,220585,91.02,"(90, 95]",6,220585,Madeiro,-3.48624,-42.4981
432,290205,91.02,"(90, 95]",6,290205,Araças,-12.22,-38.2027
433,410810,91.01,"(90, 95]",6,410810,Flórida,-23.0847,-51.9546
434,270370,91.0,"(90, 95]",6,270370,Jaramataia,-9.66224,-37.0046
435,522185,91.0,"(90, 95]",6,522185,Valparaíso de Goiás,-16.0651,-47.9757
436,314537,91.0,"(90, 95]",6,314537,Novorizonte,-16.0162,-42.4044
437,260840,91.0,"(90, 95]",6,260840,Jurema,-8.70714,-36.1347
438,220310,91.0,"(90, 95]",6,220310,Cristino Castro,-8.82273,-44.223
439,314030,90.99,"(90, 95]",6,314030,Marliéria,-19.7096,-42.7327
440,292265,90.99,"(90, 95]",6,292265,Nordestina,-10.8192,-39.4297
441,170025,90.99,"(90, 95]",6,170025,Abreulândia,-9.62101,-49.1518
442,150275,90.99,"(90, 95]",6,150275,Concórdia do Pará,-1.99238,-47.9422
443,412540,90.99,"(90, 95]",6,412540,São José da Boa Vista,-23.9122,-49.6577
444,412030,90.99,"(90, 95]",6,412030,Porto Vitória,-26.1674,-51.231
445,521910,90.99,"(90, 95]",6,521910,Santa Bárbara de Goiás,-16.5714,-49.6954
446,220730,90.98,"(90, 95]",6,220730,Paes Landim,-7.77375,-42.2474
447,250310,90.98,"(90, 95]",6,250310,Cabaceiras,-7.48899,-36.287
448,150170,90.98,"(90, 95]",6,150170,Bragança,-1.06126,-46.7826
449,412010,90.98,"(90, 95]",6,412010,Porto Amazonas,-25.54,-49.8946
450,430990,90.97,"(90, 95]",6,430990,Ibiraiaras,-28.3741,-51.6377
451,241410,90.96,"(90, 95]",6,241410,Tenente Ananias,-6.45823,-38.182
452,231300,90.95,"(90, 95]",6,231300,Solonópole,-5.71894,-39.0107
453,251330,90.95,"(90, 95]",6,251330,Santa Helena,-6.7176,-38.6427
454,330210,90.94,"(90, 95]",6,330210,Itaocara,-21.6748,-42.0758
455,260020,90.94,"(90, 95]",6,260020,Afrânio,-8.51136,-41.0095
456,311040,90.94,"(90, 95]",6,311040,Camacho,-20.6294,-45.1593
457,220997,90.93,"(90, 95]",6,220997,São João do Arraial,-3.8186,-42.4459
458,430540,90.93,"(90, 95]",6,430540,Chiapetta,-27.923,-53.9419
459,431112,90.92,"(90, 95]",6,431112,Jaquirana,-28.8811,-50.3637
460,231123,90.92,"(90, 95]",6,231123,Potiretama,-5.71287,-38.1578
461,230060,90.92,"(90, 95]",6,230060,Altaneira,-6.99837,-39.7356
462,431842,90.91,"(90, 95]",6,431842,São João da Urtiga,-27.8195,-51.8257
463,241120,90.9,"(90, 95]",6,241120,Santa Cruz,-6.22475,-36.0193
464,432032,90.9,"(90, 95]",6,432032,Senador Salgado Filho,-28.025,-54.5507
465,430175,90.89,"(90, 95]",6,430175,Barão do Triunfo,-30.3891,-51.7384
466,355460,90.89,"(90, 95]",6,355460,Timburi,-23.2057,-49.6096
467,411440,90.88,"(90, 95]",6,411440,Mangueirinha,-25.9421,-52.1743
468,520082,90.88,"(90, 95]",6,520082,Amaralina,-13.9236,-49.2962
469,431507,90.88,"(90, 95]",6,431507,Porto Vera Cruz,-27.7405,-54.8994
470,231160,90.87,"(90, 95]",6,231160,Redenção,-4.21587,-38.7277
471,210840,90.86,"(90, 95]",6,210840,Peri Mirim,-2.57676,-44.8504
472,230160,90.86,"(90, 95]",6,230160,Assaré,-6.8669,-39.8689
473,231025,90.86,"(90, 95]",6,231025,Paraipaba,-3.43799,-39.1479
474,420915,90.85,"(90, 95]",6,420915,José Boiteux,-26.9566,-49.6286
475,412560,90.85,"(90, 95]",6,412560,São Mateus do Sul,-25.8677,-50.384
476,521487,90.85,"(90, 95]",6,521487,Nova Iguaçu de Goiás,-14.2868,-49.3872
477,230260,90.85,"(90, 95]",6,230260,Camocim,-2.9005,-40.8544
478,220157,90.85,"(90, 95]",6,220157,Belém do Piauí,-7.36652,-40.9688
479,431113,90.85,"(90, 95]",6,431113,Jari,-29.2922,-54.2237
480,315860,90.84,"(90, 95]",6,315860,Santana do Deserto,-21.9512,-43.1583
481,313540,90.84,"(90, 95]",6,313540,Jeceaba,-20.5339,-43.9894
482,230565,90.84,"(90, 95]",6,230565,Ipaporanga,-4.89764,-40.7537
483,220735,90.84,"(90, 95]",6,220735,Pajeú do Piauí,-7.85508,-42.8248
484,150800,90.83,"(90, 95]",6,150800,Tomé-Açu,-2.41302,-48.1415
485,250120,90.83,"(90, 95]",6,250120,Areial,-7.04789,-35.9313
486,220100,90.82,"(90, 95]",6,220100,Arraial,-6.65075,-42.5418
487,431675,90.82,"(90, 95]",6,431675,Santa Clara do Sul,-29.4747,-52.0843
488,412370,90.82,"(90, 95]",6,412370,Santa Isabel do Ivaí,-23.0025,-53.1989
489,230180,90.81,"(90, 95]",6,230180,Baixio,-6.71945,-38.7134
490,130006,90.81,"(90, 95]",6,130006,Amaturá,-3.37455,-68.2005
491,130002,90.81,"(90, 95]",6,130002,Alvarães,-3.22727,-64.8007
492,291880,90.79,"(90, 95]",6,291880,Laje,-13.1673,-39.4213
493,410030,90.79,"(90, 95]",6,410030,Agudos do Sul,-25.9899,-49.3343
494,231085,90.79,"(90, 95]",6,231085,Pindoretama,-4.01584,-38.3061
495,520735,90.78,"(90, 95]",6,520735,Edealina,-17.4239,-49.6644
496,315790,90.77,"(90, 95]",6,315790,Santa Margarida,-20.3839,-42.2519
497,320380,90.76,"(90, 95]",6,320380,Muqui,-20.9509,-41.346
498,431849,90.76,"(90, 95]",6,431849,São José do Inhacorá,-27.7251,-54.1275
499,353284,90.76,"(90, 95]",6,353284,Nova Canaã Paulista,-20.3836,-50.9483
500,521680,90.75,"(90, 95]",6,521680,Petrolina de Goiás,-16.0968,-49.3364
501,352320,90.75,"(90, 95]",6,352320,Itararé,-24.1085,-49.3352
502,412250,90.75,"(90, 95]",6,412250,Roncador,-24.5958,-52.2716
503,230050,90.73,"(90, 95]",6,230050,Alcântaras,-3.58537,-40.5479
504,412400,90.73,"(90, 95]",6,412400,Santana do Itararé,-23.7587,-49.6293
505,421750,90.72,"(90, 95]",6,421750,Seara,-27.1564,-52.299
506,241360,90.72,"(90, 95]",6,241360,Severiano Melo,-5.77666,-37.957
507,250780,90.72,"(90, 95]",6,250780,Junco do Seridó,-6.99269,-36.7166
508,251615,90.71,"(90, 95]",6,251615,Sossêgo,-6.77067,-36.2538
509,311560,90.69,"(90, 95]",6,311560,Cedro do Abaeté,-19.1458,-45.712
510,291875,90.68,"(90, 95]",6,291875,Lagoa Real,-14.0334,-42.1328
511,240610,90.68,"(90, 95]",6,240610,Jucurutu,-6.0306,-37.009
512,354800,90.67,"(90, 95]",6,354800,Santo Antônio de Posse,-22.6029,-46.9192
513,220680,90.67,"(90, 95]",6,220680,Nossa Senhora dos Remédios,-3.97574,-42.6184
514,510120,90.67,"(90, 95]",6,510120,Araguainha,-16.857,-53.0318
515,211020,90.66,"(90, 95]",6,211020,Santa Rita,-3.14241,-44.3211
516,220865,90.66,"(90, 95]",6,220865,Queimada Nova,-8.57064,-41.4106
517,240120,90.65,"(90, 95]",6,240120,Arês,-6.18831,-35.1608
518,314950,90.65,"(90, 95]",6,314950,Pequeri,-21.8341,-43.1145
519,221065,90.65,"(90, 95]",6,221065,Sigefredo Pacheco,-4.91665,-41.7311
520,352470,90.65,"(90, 95]",6,352470,Jaguariúna,-22.7037,-46.9851
521,520500,90.65,"(90, 95]",6,520500,Carmo do Rio Verde,-15.3549,-49.708
522,230910,90.64,"(90, 95]",6,230910,Mulungu,-4.30294,-38.9951
523,421510,90.64,"(90, 95]",6,421510,Rodeio,-26.9243,-49.3649
524,290040,90.63,"(90, 95]",6,290040,Água Fria,-11.8618,-38.7639
525,231220,90.63,"(90, 95]",6,231220,Santa Quitéria,-4.32608,-40.1523
526,412760,90.62,"(90, 95]",6,412760,Tijucas do Sul,-25.9311,-49.195
527,314900,90.62,"(90, 95]",6,314900,Pedra Dourada,-20.8266,-42.1515
528,522190,90.62,"(90, 95]",6,522190,Varjão,-17.0471,-49.6312
529,314085,90.6,"(90, 95]",6,314085,Matias Cardoso,-14.8563,-43.9146
530,230210,90.6,"(90, 95]",6,230210,Baturité,-4.32598,-38.8812
531,231000,90.6,"(90, 95]",6,231000,Palhano,-4.73672,-37.9655
532,220860,90.6,"(90, 95]",6,220860,Prata do Piauí,-5.67265,-42.2046
533,431510,90.6,"(90, 95]",6,431510,Porto Xavier,-27.9082,-55.1379
534,250250,90.59,"(90, 95]",6,250250,Boqueirão,-7.487,-36.1309
535,412570,90.58,"(90, 95]",6,412570,São Miguel do Iguaçu,-25.3492,-54.2405
536,316080,90.58,"(90, 95]",6,316080,São Bento Abade,-21.5839,-45.0699
537,251394,90.57,"(90, 95]",6,251394,São Domingos do Cariri,-7.63273,-36.4374
538,230240,90.57,"(90, 95]",6,230240,Boa Viagem,-5.11258,-39.7337
539,320020,90.55,"(90, 95]",6,320020,Alegre,-20.758,-41.5382
540,240165,90.55,"(90, 95]",6,240165,Bodó,-5.98027,-36.4167
541,312530,90.55,"(90, 95]",6,312530,Faria Lemos,-20.8097,-42.0213
542,172030,90.54,"(90, 95]",6,172030,São Sebastião do Tocantins,-5.26131,-48.2021
543,351780,90.54,"(90, 95]",6,351780,Guaraçaí,-21.0292,-51.2119
544,251200,90.54,"(90, 95]",6,251200,Pocinhos,-7.06658,-36.0668
545,230280,90.54,"(90, 95]",6,230280,Canindé,-4.35162,-39.3155
546,411470,90.54,"(90, 95]",6,411470,Maria Helena,-23.6158,-53.2053
547,292220,90.53,"(90, 95]",6,292220,Muniz Ferreira,-13.0092,-39.1092
548,220750,90.53,"(90, 95]",6,220750,Palmeirais,-5.97086,-43.056
549,311630,90.53,"(90, 95]",6,311630,Cipotânea,-20.9026,-43.3629
550,316920,90.53,"(90, 95]",6,316920,Tombos,-20.9086,-42.0228
551,261153,90.52,"(90, 95]",6,261153,Quixaba,-7.70734,-37.8446
552,421640,90.52,"(90, 95]",6,421640,São João do Sul,-29.2154,-49.8094
553,354710,90.51,"(90, 95]",6,354710,Santa Mercedes,-21.3495,-51.7564
554,421870,90.51,"(90, 95]",6,421870,Tubarão,-28.4713,-49.0144
555,315260,90.51,"(90, 95]",6,315260,Pouso Alto,-22.1964,-44.9748
556,410045,90.5,"(90, 95]",6,410045,Altamira do Paraná,-24.7983,-52.7128
557,292730,90.49,"(90, 95]",6,292730,Salinas da Margarida,-12.873,-38.7562
558,411090,90.49,"(90, 95]",6,411090,Itaguajé,-22.6183,-51.9674
559,290700,90.49,"(90, 95]",6,290700,Cardeal da Silva,-11.9472,-37.9469
560,411630,90.48,"(90, 95]",6,411630,Munhoz de Melo,-23.1487,-51.7737
561,241330,90.47,"(90, 95]",6,241330,Serra de São Bento,-6.41762,-35.7033
562,210675,90.47,"(90, 95]",6,210675,Miranda do Norte,-3.56313,-44.5814
563,220555,90.47,"(90, 95]",6,220555,Lagoa Alegre,-4.51539,-42.6309
564,420550,90.47,"(90, 95]",6,420550,Fraiburgo,-27.0233,-50.92
565,312738,90.46,"(90, 95]",6,312738,Goianá,-21.536,-43.1957
566,250527,90.46,"(90, 95]",6,250527,Curral de Cima,-6.72325,-35.2639
567,231040,90.45,"(90, 95]",6,231040,Paramoti,-4.08815,-39.2417
568,421830,90.45,"(90, 95]",6,421830,Três Barras,-26.1056,-50.3197
569,350620,90.45,"(90, 95]",6,350620,Bento de Abreu,-21.2686,-50.814
570,351650,90.44,"(90, 95]",6,351650,Gabriel Monteiro,-21.5294,-50.5573
571,353970,90.44,"(90, 95]",6,353970,Platina,-22.6371,-50.2104
572,310280,90.43,"(90, 95]",6,310280,Andrelândia,-21.7411,-44.3117
573,315520,90.43,"(90, 95]",6,315520,Rio Espera,-20.855,-43.4721
574,293240,90.43,"(90, 95]",6,293240,Uibaí,-11.3394,-42.1354
575,270920,90.43,"(90, 95]",6,270920,Traipu,-9.96262,-37.0071
576,314467,90.43,"(90, 95]",6,314467,Nova Belém,-18.4925,-41.1107
577,315880,90.42,"(90, 95]",6,315880,Santana do Jacaré,-20.9007,-45.1285
578,412680,90.42,"(90, 95]",6,412680,Tapejara,-23.7315,-52.8735
579,231330,90.42,"(90, 95]",6,231330,Tauá,-5.98585,-40.2968
580,230820,90.42,"(90, 95]",6,230820,Meruoca,-3.53974,-40.4531
581,230945,90.41,"(90, 95]",6,230945,Ocara,-4.48523,-38.5933
582,291070,90.41,"(90, 95]",6,291070,Euclides da Cunha,-10.5078,-39.0153
583,520393,90.41,"(90, 95]",6,520393,Buriti de Goiás,-16.1792,-50.4302
584,354960,90.41,"(90, 95]",6,354960,São José do Barreiro,-22.6414,-44.5774
585,230220,90.41,"(90, 95]",6,230220,Beberibe,-4.17741,-38.1271
586,432360,90.41,"(90, 95]",6,432360,Vista Alegre do Prata,-28.8052,-51.7947
587,171090,90.41,"(90, 95]",6,171090,Itapiratins,-8.37982,-48.1072
588,230580,90.4,"(90, 95]",6,230580,Ipu,-4.31748,-40.7059
589,351750,90.4,"(90, 95]",6,351750,Guapiaçu,-20.7959,-49.2172
590,430070,90.4,"(90, 95]",6,430070,Anta Gorda,-28.9698,-52.0102
591,150720,90.4,"(90, 95]",6,150720,São Domingos do Capim,-1.68768,-47.7665
592,352890,90.39,"(90, 95]",6,352890,Mariápolis,-21.7959,-51.1824
593,251593,90.39,"(90, 95]",6,251593,Sertãozinho,-6.75127,-35.4372
594,411120,90.38,"(90, 95]",6,411120,Itapejara d'Oeste,-25.9619,-52.8152
595,290420,90.38,"(90, 95]",6,290420,Botuporã,-13.3772,-42.5163
596,410680,90.37,"(90, 95]",6,410680,Cruz Machado,-26.0166,-51.343
597,220050,90.37,"(90, 95]",6,220050,Amarante,-6.24304,-42.8433
598,250090,90.37,"(90, 95]",6,250090,Arara,-6.82813,-35.7552
599,172025,90.37,"(90, 95]",6,172025,São Salvador do Tocantins,-12.7458,-48.2352
600,521870,90.36,"(90, 95]",6,521870,Rianápolis,-15.4456,-49.5114
601,230015,90.35,"(90, 95]",6,230015,Acarape,-4.22083,-38.7055
602,171195,90.35,"(90, 95]",6,171195,Lagoa do Tocantins,-10.368,-47.538
603,260640,90.35,"(90, 95]",6,260640,Gravatá,-8.21118,-35.5675
604,520945,90.35,"(90, 95]",6,520945,Guarinos,-14.7292,-49.7006
605,292205,90.34,"(90, 95]",6,292205,Mulungu do Morro,-11.9648,-41.6374
606,355730,90.34,"(90, 95]",6,355730,Estiva Gerbi,-22.2713,-46.9481
607,292850,90.34,"(90, 95]",6,292850,Santa Teresinha,-12.7697,-39.5215
608,210690,90.34,"(90, 95]",6,210690,Monção,-3.48125,-45.2496
609,355390,90.33,"(90, 95]",6,355390,Tarabai,-22.3016,-51.5621
610,431455,90.33,"(90, 95]",6,431455,Pirapó,-28.0439,-55.2001
611,355260,90.33,"(90, 95]",6,355260,Tabapuã,-20.9602,-49.0307
612,231070,90.32,"(90, 95]",6,231070,Pentecoste,-3.79274,-39.2692
613,250153,90.32,"(90, 95]",6,250153,Baraúna,-6.63484,-36.2601
614,314750,90.32,"(90, 95]",6,314750,Passabém,-19.3509,-43.1383
615,251675,90.31,"(90, 95]",6,251675,Tenório,-6.93855,-36.6273
616,350745,90.31,"(90, 95]",6,350745,Borebi,-22.5728,-48.9707
617,312695,90.3,"(90, 95]",6,312695,Frei Lagonegro,-18.1751,-42.7617
618,220345,90.3,"(90, 95]",6,220345,Dom Inocêncio,-9.00516,-41.9697
619,291992,90.29,"(90, 95]",6,291992,Madre de Deus,-12.7446,-38.6153
620,410340,90.29,"(90, 95]",6,410340,Cafeara,-22.789,-51.7142
621,431210,90.29,"(90, 95]",6,431210,Mata,-29.5649,-54.4641
622,290150,90.28,"(90, 95]",6,290150,Anguera,-12.1462,-39.2462
623,520400,90.28,"(90, 95]",6,520400,Cabeceiras,-15.7995,-46.9265
624,250390,90.28,"(90, 95]",6,250390,Camalaú,-7.88503,-36.8242
625,352000,90.28,"(90, 95]",6,352000,Igaraçu do Tietê,-22.509,-48.5597
626,211003,90.27,"(90, 95]",6,211003,Santa Luzia do Paruá,-2.51123,-45.7801
627,420890,90.27,"(90, 95]",6,420890,Jaraguá do Sul,-26.4851,-49.0713
628,211190,90.26,"(90, 95]",6,211190,Sucupira do Norte,-6.47839,-44.1919
629,220180,90.26,"(90, 95]",6,220180,Bocaina,-6.94124,-41.3168
630,420520,90.26,"(90, 95]",6,420520,Erval Velho,-27.2743,-51.443
631,251130,90.26,"(90, 95]",6,251130,Piancó,-7.19282,-37.9289
632,210637,90.26,"(90, 95]",6,210637,Maranhãozinho,-2.24078,-45.8507
633,171430,90.25,"(90, 95]",6,171430,Nazaré,-6.37496,-47.6643
634,410465,90.25,"(90, 95]",6,410465,Carambeí,-24.9152,-50.0986
635,291720,90.25,"(90, 95]",6,291720,Ituaçu,-13.8107,-41.3003
636,231375,90.24,"(90, 95]",6,231375,Umirim,-3.67654,-39.3465
637,130255,90.24,"(90, 95]",6,130255,Manaquiri,-3.44078,-60.4612
638,240650,90.23,"(90, 95]",6,240650,Lagoa Nova,-6.09339,-36.4703
639,315057,90.23,"(90, 95]",6,315057,Pintópolis,-16.0572,-45.1402
640,320225,90.23,"(90, 95]",6,320225,Governador Lindenberg,-19.1864,-40.4473
641,430471,90.23,"(90, 95]",6,430471,Caraá,-29.7869,-50.4316
642,312520,90.23,"(90, 95]",6,312520,Fama,-21.4089,-45.8286
643,231320,90.22,"(90, 95]",6,231320,Tamboril,-4.83136,-40.3196
644,430120,90.22,"(90, 95]",6,430120,Arroio do Tigre,-29.3348,-53.0966
645,431244,90.22,"(90, 95]",6,431244,Morrinhos do Sul,-29.3578,-49.9328
646,220160,90.21,"(90, 95]",6,220160,Beneditinos,-5.45676,-42.3638
647,290450,90.2,"(90, 95]",6,290450,Brotas de Macaúbas,-11.9915,-42.6326
648,260795,90.2,"(90, 95]",6,260795,Jaqueira,-8.72618,-35.7942
649,510895,90.2,"(90, 95]",6,510895,Nova Monte Verde,-9.99998,-57.5261
650,260180,90.19,"(90, 95]",6,260180,Betânia,-8.26787,-38.0345
651,240540,90.19,"(90, 95]",6,240540,Japi,-6.46544,-35.9346
652,251597,90.18,"(90, 95]",6,251597,Sobrado,-7.14429,-35.2357
653,210230,90.18,"(90, 95]",6,210230,Buriti Bravo,-5.83239,-43.8353
654,240780,90.18,"(90, 95]",6,240780,Monte Alegre,-6.07063,-35.3253
655,521020,90.17,"(90, 95]",6,521020,Iporá,-16.4398,-51.118
656,251100,90.17,"(90, 95]",6,251100,Pedra Branca,-7.42169,-38.0689
657,270250,90.16,"(90, 95]",6,270250,Dois Riachos,-9.38465,-37.0965
658,171280,90.16,"(90, 95]",6,171280,Maurilândia do Tocantins,-5.95169,-47.5125
659,432210,90.16,"(90, 95]",6,432210,Tucunduva,-27.6573,-54.4439
660,270840,90.15,"(90, 95]",6,270840,São José da Tapera,-9.55768,-37.3831
661,430885,90.15,"(90, 95]",6,430885,Gentil,-28.4316,-52.0337
662,290230,90.15,"(90, 95]",6,290230,Aratuípe,-13.0716,-39.0038
663,230125,90.14,"(90, 95]",6,230125,Ararendá,-4.74567,-40.831
664,410335,90.14,"(90, 95]",6,410335,Braganey,-24.8173,-53.1218
665,292640,90.14,"(90, 95]",6,292640,Riacho de Santana,-13.6059,-42.9397
666,421730,90.14,"(90, 95]",6,421730,Saudades,-26.9317,-53.0021
667,240840,90.13,"(90, 95]",6,240840,Olho-d'Água do Borges,-5.9486,-37.7047
668,292180,90.13,"(90, 95]",6,292180,Mortugaba,-15.0225,-42.3727
669,431085,90.12,"(90, 95]",6,431085,Jaboticaba,-27.6347,-53.2762
670,311020,90.12,"(90, 95]",6,311020,Cajuri,-20.7903,-42.7925
671,261570,90.11,"(90, 95]",6,261570,Triunfo,-7.83272,-38.0978
672,313545,90.11,"(90, 95]",6,313545,Jenipapo de Minas,-17.0831,-42.2589
673,412280,90.1,"(90, 95]",6,412280,Salgado Filho,-26.1777,-53.3631
674,430600,90.1,"(90, 95]",6,430600,Crissiumal,-27.4999,-54.0994
675,293310,90.09,"(90, 95]",6,293310,Várzea do Poço,-11.5273,-40.3149
676,231250,90.09,"(90, 95]",6,231250,São João do Jaguaribe,-5.27516,-38.2694
677,280520,90.09,"(90, 95]",6,280520,Pinhão,-10.5677,-37.7242
678,352020,90.09,"(90, 95]",6,352020,Igaratá,-23.2037,-46.157
679,210462,90.08,"(90, 95]",6,210462,Governador Luiz Rocha,-5.47835,-44.0774
680,211240,90.07,"(90, 95]",6,211240,Turiaçu,-1.65893,-45.3798
681,355630,90.07,"(90, 95]",6,355630,Valparaíso,-21.2229,-50.8699
682,230900,90.07,"(90, 95]",6,230900,Mucambo,-3.90271,-40.7452
683,330560,90.07,"(90, 95]",6,330560,Silva Jardim,-22.6574,-42.3961
684,231350,90.07,"(90, 95]",6,231350,Trairi,-3.26932,-39.2681
685,412670,90.06,"(90, 95]",6,412670,Tamboara,-23.2036,-52.4743
686,240860,90.06,"(90, 95]",6,240860,Paraná,-6.47565,-38.3057
687,220610,90.06,"(90, 95]",6,220610,Matias Olímpio,-3.71492,-42.5507
688,355510,90.05,"(90, 95]",6,355510,Tupi Paulista,-21.3825,-51.575
689,421590,90.05,"(90, 95]",6,421590,São Bonifácio,-27.9009,-48.9326
690,231020,90.05,"(90, 95]",6,231020,Paracuru,-3.41436,-39.03
691,411550,90.05,"(90, 95]",6,411550,Marumbi,-23.7058,-51.6404
692,355475,90.04,"(90, 95]",6,355475,Trabiju,-22.0388,-48.3342
693,312840,90.04,"(90, 95]",6,312840,Guarani,-21.3563,-43.0328
694,251050,90.03,"(90, 95]",6,251050,Olivedos,-6.98434,-36.241
695,290760,90.03,"(90, 95]",6,290760,Central,-11.1376,-42.1116
696,292900,90.03,"(90, 95]",6,292900,São Félix,-12.6104,-38.9727
697,431123,90.02,"(90, 95]",6,431123,Lagoa Bonita do Sul,-29.4939,-53.017
698,355350,90.0,"(85, 90]",5,355350,Tapiraí,-23.9612,-47.5062
699,411130,90.0,"(85, 90]",5,411130,Itaúna do Sul,-22.7289,-52.8874
700,230880,90.0,"(85, 90]",5,230880,Moraújo,-3.46311,-40.6776
701,220273,90.0,"(85, 90]",5,220273,Coivaras,-5.09224,-42.208
702,250600,90.0,"(85, 90]",5,250600,Esperança,-7.02278,-35.8597
703,312650,89.99,"(85, 90]",5,312650,Francisco Badaró,-16.9883,-42.3568
704,241500,89.98,"(85, 90]",5,241500,Vila Flor,-6.31287,-35.067
705,312030,89.98,"(85, 90]",5,312030,Cristália,-16.716,-42.8571
706,311120,89.98,"(85, 90]",5,311120,Campo Belo,-20.8932,-45.2699
707,170560,89.97,"(85, 90]",5,170560,Conceição do Tocantins,-12.2209,-47.2951
708,330390,89.97,"(85, 90]",5,330390,Petrópolis,-22.52,-43.1926
709,220260,89.96,"(85, 90]",5,220260,Castelo do Piauí,-5.31869,-41.5499
710,355130,89.96,"(85, 90]",5,355130,Sebastianópolis do Sul,-20.6523,-49.925
711,291240,89.96,"(85, 90]",5,291240,Ibipeba,-11.6438,-42.0195
712,250420,89.96,"(85, 90]",5,250420,Catingueira,-7.12008,-37.6064
713,412420,89.96,"(85, 90]",5,412420,Santo Antônio do Caiuá,-22.7351,-52.344
714,411860,89.96,"(85, 90]",5,411860,Paula Freitas,-26.2105,-50.931
715,431940,89.95,"(85, 90]",5,431940,São Pedro do Sul,-29.6202,-54.1855
716,172000,89.95,"(85, 90]",5,172000,Santa Terezinha do Tocantins,-6.44438,-47.6684
717,251170,89.95,"(85, 90]",5,251170,Pilõezinhos,-6.84277,-35.531
718,312640,89.95,"(85, 90]",5,312640,Fortuna de Minas,-19.5578,-44.4472
719,351950,89.95,"(85, 90]",5,351950,Ibirarema,-22.8185,-50.0739
720,250160,89.95,"(85, 90]",5,250160,Barra de Santa Rosa,-6.71816,-36.0671
721,310790,89.95,"(85, 90]",5,310790,Bom Repouso,-22.4675,-46.144
722,350830,89.95,"(85, 90]",5,350830,Cabrália Paulista,-22.4576,-49.3393
723,313680,89.95,"(85, 90]",5,313680,Juramento,-16.8473,-43.5865
724,260620,89.94,"(85, 90]",5,260620,Goiana,-7.5606,-34.9959
725,430205,89.94,"(85, 90]",5,430205,Benjamin Constant do Sul,-27.5086,-52.5995
726,420610,89.94,"(85, 90]",5,420610,Grão Pará,-28.1809,-49.2252
727,230470,89.93,"(85, 90]",5,230470,Granja,-3.12788,-40.8372
728,500350,89.93,"(85, 90]",5,500350,Douradina,-22.0405,-54.6158
729,320310,89.92,"(85, 90]",5,320310,Jerônimo Monteiro,-20.7994,-41.3948
730,311970,89.91,"(85, 90]",5,311970,Coronel Xavier Chaves,-21.0277,-44.2206
731,291733,89.91,"(85, 90]",5,291733,Iuiú,-14.4054,-43.5595
732,500640,89.91,"(85, 90]",5,500640,Pedro Gomes,-18.0996,-54.5507
733,430150,89.89,"(85, 90]",5,430150,Augusto Pestana,-28.5172,-53.9883
734,230250,89.89,"(85, 90]",5,230250,Brejo Santo,-7.48469,-38.9799
735,231090,89.89,"(85, 90]",5,231090,Piquet Carneiro,-5.80025,-39.417
736,412230,89.89,"(85, 90]",5,412230,Rio Negro,-26.095,-49.7982
737,354050,89.88,"(85, 90]",5,354050,Porangaba,-23.1761,-48.1195
738,311547,89.88,"(85, 90]",5,311547,Catuti,-15.3616,-42.9627
739,412730,89.87,"(85, 90]",5,412730,Terra Rica,-22.7111,-52.6188
740,231355,89.87,"(85, 90]",5,231355,Tururu,-3.58413,-39.4297
741,150620,89.87,"(85, 90]",5,150620,Salinópolis,-0.630815,-47.3465
742,315330,89.87,"(85, 90]",5,315330,Presidente Kubitschek,-18.6193,-43.5628
743,220210,89.86,"(85, 90]",5,220210,Campinas do Piauí,-7.6593,-41.8775
744,250710,89.86,"(85, 90]",5,250710,Itapororoca,-6.82374,-35.2406
745,430260,89.85,"(85, 90]",5,430260,Braga,-27.6173,-53.7405
746,411040,89.85,"(85, 90]",5,411040,Indianópolis,-23.4762,-52.6989
747,220605,89.84,"(85, 90]",5,220605,Massapê do Piauí,-7.47469,-41.1103
748,315110,89.84,"(85, 90]",5,315110,Pirapetinga,-21.6554,-42.3434
749,350150,89.84,"(85, 90]",5,350150,Alvinlândia,-22.4435,-49.7623
750,261460,89.84,"(85, 90]",5,261460,Tabira,-7.58366,-37.5377
751,510629,89.83,"(85, 90]",5,510629,Paranaíta,-9.65835,-56.4786
752,316540,89.83,"(85, 90]",5,316540,Sapucaí-Mirim,-22.7409,-45.738
753,261400,89.83,"(85, 90]",5,261400,Serrita,-7.94041,-39.2951
754,411980,89.83,"(85, 90]",5,411980,Planalto,-25.7211,-53.7642
755,354280,89.83,"(85, 90]",5,354280,Ribeira,-24.6517,-49.0044
756,314830,89.82,"(85, 90]",5,314830,Paula Cândido,-20.8754,-42.9752
757,350775,89.81,"(85, 90]",5,350775,Brejo Alegre,-21.1651,-50.1861
758,314465,89.81,"(85, 90]",5,314465,Ninheira,-15.3148,-41.7564
759,410655,89.81,"(85, 90]",5,410655,Corumbataí do Sul,-24.101,-52.1177
760,350090,89.81,"(85, 90]",5,350090,Altair,-20.5242,-49.0571
761,520815,89.8,"(85, 90]",5,520815,Gameleira de Goiás,-16.4854,-48.6454
762,210970,89.79,"(85, 90]",5,210970,Sambaíba,-7.13447,-45.3515
763,351500,89.79,"(85, 90]",5,351500,Embu das Artes,-23.6437,-46.8579
764,352240,89.78,"(85, 90]",5,352240,Itapeva,-23.9788,-48.8764
765,354940,89.78,"(85, 90]",5,354940,São Joaquim da Barra,-20.5812,-47.8593
766,220820,89.78,"(85, 90]",5,220820,Pio IX,-6.83002,-40.6083
767,292340,89.78,"(85, 90]",5,292340,Palmas de Monte Alto,-14.2676,-43.1609
768,315737,89.77,"(85, 90]",5,315737,Santa Cruz de Salinas,-16.0967,-41.7418
769,355120,89.77,"(85, 90]",5,355120,Sarutaiá,-23.2721,-49.4763
770,292410,89.77,"(85, 90]",5,292410,Pedrão,-12.1491,-38.6487
771,431970,89.77,"(85, 90]",5,431970,São Valentim,-27.5583,-52.5237
772,171420,89.76,"(85, 90]",5,171420,Natividade,-11.7034,-47.7223
773,314460,89.76,"(85, 90]",5,314460,Nepomuceno,-21.2324,-45.235
774,353282,89.76,"(85, 90]",5,353282,Nova Campina,-24.1224,-48.9022
775,220240,89.76,"(85, 90]",5,220240,Capitão de Campos,-4.457,-41.944
776,211195,89.75,"(85, 90]",5,211195,Sucupira do Riachão,-6.40858,-43.5455
777,520940,89.75,"(85, 90]",5,520940,Guarani de Goiás,-13.9421,-46.4868
778,314410,89.75,"(85, 90]",5,314410,Muzambinho,-21.3692,-46.5213
779,430830,89.74,"(85, 90]",5,430830,Fontoura Xavier,-28.9817,-52.3445
780,353890,89.74,"(85, 90]",5,353890,Pirajuí,-21.999,-49.4608
781,420920,89.74,"(85, 90]",5,420920,Lacerdópolis,-27.2579,-51.5577
782,231180,89.73,"(85, 90]",5,231180,Russas,-4.92673,-37.9721
783,210490,89.73,"(85, 90]",5,210490,Guimarães,-2.12755,-44.602
784,316350,89.73,"(85, 90]",5,316350,São José do Jacuri,-18.281,-42.6729
785,320250,89.72,"(85, 90]",5,320250,Ibiraçu,-19.8366,-40.3732
786,292080,89.72,"(85, 90]",5,292080,Marcionílio Souza,-13.0064,-40.5295
787,261440,89.72,"(85, 90]",5,261440,Solidão,-7.59472,-37.6445
788,431275,89.71,"(85, 90]",5,431275,Nova Alvorada,-28.6822,-52.1631
789,320503,89.71,"(85, 90]",5,320503,Vargem Alta,-20.669,-41.0179
790,230205,89.71,"(85, 90]",5,230205,Barroquinha,-3.02051,-41.1358
791,316710,89.71,"(85, 90]",5,316710,Serro,-18.5991,-43.3744
792,354270,89.71,"(85, 90]",5,354270,Restinga,-20.6056,-47.4833
793,230340,89.7,"(85, 90]",5,230340,Carnaubal,-4.15985,-40.9413
794,171850,89.7,"(85, 90]",5,171850,Recursolândia,-8.7227,-47.2421
795,431217,89.7,"(85, 90]",5,431217,Mato Queimado,-28.252,-54.6159
796,240010,89.7,"(85, 90]",5,240010,Acari,-6.4282,-36.6347
797,221150,89.7,"(85, 90]",5,221150,Vera Mendes,-7.59748,-41.4673
798,312060,89.69,"(85, 90]",5,312060,Crucilândia,-20.3923,-44.3334
799,150570,89.69,"(85, 90]",5,150570,Ponta de Pedras,-1.39587,-48.8661
800,250290,89.69,"(85, 90]",5,250290,Brejo dos Santos,-6.37065,-37.8253
801,410315,89.68,"(85, 90]",5,410315,Bom Jesus do Sul,-26.1958,-53.5955
802,431770,89.68,"(85, 90]",5,431770,Santo Antônio das Missões,-28.514,-55.2251
803,311610,89.68,"(85, 90]",5,311610,Chapada do Norte,-17.0881,-42.5392
804,354320,89.67,"(85, 90]",5,354320,Ribeirão do Sul,-22.789,-49.933
805,250550,89.67,"(85, 90]",5,250550,Vista Serrana,-6.7303,-37.5704
806,230200,89.67,"(85, 90]",5,230200,Barro,-7.17188,-38.7741
807,170555,89.66,"(85, 90]",5,170555,Combinado,-12.7917,-46.5388
808,411300,89.66,"(85, 90]",5,411300,Jussara,-23.6219,-52.4693
809,353625,89.66,"(85, 90]",5,353625,Parisi,-20.3034,-50.0163
810,292305,89.65,"(85, 90]",5,292305,Novo Triunfo,-10.3182,-38.4014
811,312290,89.65,"(85, 90]",5,312290,Dona Eusébia,-21.319,-42.807
812,240480,89.65,"(85, 90]",5,240480,Ipueira,-6.80596,-37.2045
813,241180,89.64,"(85, 90]",5,241180,São Fernando,-6.37975,-37.1864
814,314640,89.64,"(85, 90]",5,314640,Paineiras,-18.8993,-45.5321
815,210390,89.64,"(85, 90]",5,210390,Duque Bacelar,-4.15002,-42.9477
816,130050,89.64,"(85, 90]",5,130050,Barreirinha,-2.79886,-57.0679
817,292010,89.64,"(85, 90]",5,292010,Mairi,-11.7107,-40.1437
818,250760,89.63,"(85, 90]",5,250760,Juarez Távora,-7.1713,-35.5686
819,316930,89.63,"(85, 90]",5,316930,Três Corações,-21.6921,-45.2511
820,355200,89.62,"(85, 90]",5,355200,Silveiras,-22.6638,-44.8522
821,430675,89.62,"(85, 90]",5,430675,Doutor Ricardo,-29.084,-51.9972
822,315820,89.62,"(85, 90]",5,315820,Santa Maria do Suaçuí,-18.1896,-42.4139
823,355410,89.61,"(85, 90]",5,355410,Taubaté,-23.0104,-45.5593
824,410800,89.61,"(85, 90]",5,410800,Florestópolis,-22.8623,-51.3882
825,352810,89.6,"(85, 90]",5,352810,Macaubal,-20.8022,-49.9687
826,351518,89.6,"(85, 90]",5,351518,Espírito Santo do Pinhal,-22.1909,-46.7477
827,210135,89.6,"(85, 90]",5,210135,Bacurituba,-2.71,-44.7329
828,220060,89.59,"(85, 90]",5,220060,Angical do Piauí,-6.08786,-42.74
829,521770,89.59,"(85, 90]",5,521770,Pontalina,-17.5225,-49.4489
830,230670,89.59,"(85, 90]",5,230670,Jaguaretama,-5.6051,-38.7639
831,510777,89.59,"(85, 90]",5,510777,Santa Terezinha,-10.4704,-50.514
832,316120,89.58,"(85, 90]",5,316120,São Francisco de Paula,-20.7036,-44.9838
833,352300,89.58,"(85, 90]",5,352300,Itapura,-20.6419,-51.5063
834,310880,89.58,"(85, 90]",5,310880,Braúnas,-19.0562,-42.7099
835,353540,89.58,"(85, 90]",5,353540,Panorama,-21.354,-51.8562
836,241080,89.56,"(85, 90]",5,241080,Riacho de Santana,-6.25139,-38.3116
837,260710,89.56,"(85, 90]",5,260710,Ingazeira,-7.66909,-37.4576
838,290140,89.56,"(85, 90]",5,290140,Angical,-12.0063,-44.7003
839,316290,89.56,"(85, 90]",5,316290,São João Nepomuceno,-21.5381,-43.0069
840,311330,89.56,"(85, 90]",5,311330,Carangola,-20.7343,-42.0313
841,310410,89.56,"(85, 90]",5,310410,Arceburgo,-21.359,-46.9401
842,220545,89.56,"(85, 90]",5,220545,Joca Marques,-3.4804,-42.4255
843,240850,89.56,"(85, 90]",5,240850,Ouro Branco,-6.6958,-36.9428
844,430805,89.55,"(85, 90]",5,430805,Faxinalzinho,-27.4238,-52.6789
845,241320,89.55,"(85, 90]",5,241320,Senador Georgino Avelino,-6.1576,-35.1299
846,420490,89.54,"(85, 90]",5,420490,Descanso,-26.827,-53.5034
847,251710,89.54,"(85, 90]",5,251710,Várzea,-6.76189,-36.9913
848,240400,89.54,"(85, 90]",5,240400,Frutuoso Gomes,-6.15669,-37.8375
849,430781,89.53,"(85, 90]",5,430781,Estrela Velha,-29.1713,-53.1639
850,292937,89.53,"(85, 90]",5,292937,São José do Jacuípe,-11.4137,-39.8669
851,320430,89.52,"(85, 90]",5,320430,Presidente Kennedy,-21.0964,-41.0468
852,231095,89.51,"(85, 90]",5,231095,Pires Ferreira,-4.23922,-40.6442
853,312825,89.51,"(85, 90]",5,312825,Guaraciama,-17.0142,-43.6675
854,351320,89.51,"(85, 90]",5,351320,Cristais Paulista,-20.4036,-47.4209
855,510820,89.51,"(85, 90]",5,510820,Torixoréu,-16.2006,-52.5571
856,230780,89.5,"(85, 90]",5,230780,Marco,-3.1285,-40.1582
857,350750,89.5,"(85, 90]",5,350750,Botucatu,-22.8837,-48.4437
858,311520,89.5,"(85, 90]",5,311520,Conceição da Barra de Minas,-21.1316,-44.4729
859,315230,89.49,"(85, 90]",5,315230,Porto Firme,-20.6642,-43.0834
860,351340,89.49,"(85, 90]",5,351340,Cruzeiro,-22.5728,-44.969
861,170360,89.49,"(85, 90]",5,170360,Brasilândia do Tocantins,-8.38918,-48.4822
862,292910,89.49,"(85, 90]",5,292910,São Felipe,-12.8394,-39.0893
863,310140,89.49,"(85, 90]",5,310140,Albertina,-22.2018,-46.6139
864,231170,89.49,"(85, 90]",5,231170,Reriutaba,-4.14191,-40.5759
865,420665,89.48,"(85, 90]",5,420665,Guatambú,-27.1341,-52.7887
866,411885,89.48,"(85, 90]",5,411885,Perobal,-23.8949,-53.4098
867,313500,89.48,"(85, 90]",5,313500,Jaguaraçu,-19.647,-42.7498
868,251380,89.48,"(85, 90]",5,251380,Santa Teresinha,-7.07964,-37.4435
869,261320,89.48,"(85, 90]",5,261320,São João,-8.87576,-36.3653
870,412340,89.48,"(85, 90]",5,412340,Santa Fé,-23.04,-51.808
871,130426,89.48,"(85, 90]",5,130426,Uarini,-2.99609,-65.1133
872,521260,89.47,"(85, 90]",5,521260,Mairipotaba,-17.2975,-49.4898
873,315040,89.47,"(85, 90]",5,315040,Piedade dos Gerais,-20.4715,-44.2243
874,432000,89.47,"(85, 90]",5,432000,Sapucaia do Sul,-29.8276,-51.145
875,314100,89.46,"(85, 90]",5,314100,Mato Verde,-15.3944,-42.86
876,171780,89.46,"(85, 90]",5,171780,Ponte Alta do Bom Jesus,-12.0853,-46.4825
877,313450,89.46,"(85, 90]",5,313450,Itutinga,-21.3,-44.6567
878,410304,89.45,"(85, 90]",5,410304,Boa Ventura de São Roque,-24.8688,-51.6276
879,290880,89.44,"(85, 90]",5,290880,Contendas do Sincorá,-13.7537,-41.048
880,430258,89.44,"(85, 90]",5,430258,Bozano,-28.3659,-53.772
881,291955,89.44,"(85, 90]",5,291955,Luís Eduardo Magalhães,-12.0956,-45.7866
882,352120,89.43,"(85, 90]",5,352120,Iporanga,-24.5847,-48.5971
883,210320,89.43,"(85, 90]",5,210320,Chapadinha,-3.73875,-43.3538
884,352670,89.43,"(85, 90]",5,352670,Leme,-22.1809,-47.3841
885,220880,89.41,"(85, 90]",5,220880,Regeneração,-6.23115,-42.6842
886,430330,89.4,"(85, 90]",5,430330,Caibaté,-28.2905,-54.6454
887,220220,89.4,"(85, 90]",5,220220,Campo Maior,-4.8217,-42.1641
888,315730,89.39,"(85, 90]",5,315730,Santa Bárbara do Tugúrio,-21.2431,-43.5607
889,170270,89.39,"(85, 90]",5,170270,Aurora do Tocantins,-12.7105,-46.4076
890,314910,89.39,"(85, 90]",5,314910,Pedralva,-22.2386,-45.4654
891,293317,89.39,"(85, 90]",5,293317,Varzedo,-12.9672,-39.3919
892,411220,89.38,"(85, 90]",5,411220,Janiópolis,-24.1401,-52.7784
893,230835,89.38,"(85, 90]",5,230835,Milhã,-5.67252,-39.1875
894,291020,89.37,"(85, 90]",5,291020,Dom Macedo Costa,-12.9016,-39.1923
895,314587,89.37,"(85, 90]",5,314587,Orizânia,-20.5142,-42.1991
896,230990,89.36,"(85, 90]",5,230990,Pacujá,-3.98327,-40.6989
897,230445,89.36,"(85, 90]",5,230445,Fortim,-4.45126,-37.7981
898,313730,89.36,"(85, 90]",5,313730,Lagoa dos Patos,-16.978,-44.5754
899,310360,89.35,"(85, 90]",5,310360,Arantina,-21.9102,-44.2555
900,312940,89.35,"(85, 90]",5,312940,Ibertioga,-21.433,-43.9639
901,412385,89.35,"(85, 90]",5,412385,Santa Maria do Oeste,-24.9377,-51.8696
902,410442,89.35,"(85, 90]",5,410442,Candói,-25.5758,-52.0409
903,250470,89.35,"(85, 90]",5,250470,Congo,-7.79078,-36.6581
904,320470,89.35,"(85, 90]",5,320470,São Gabriel da Palha,-19.0182,-40.5365
905,316750,89.34,"(85, 90]",5,316750,Simão Pereira,-21.964,-43.3088
906,230523,89.34,"(85, 90]",5,230523,Horizonte,-4.1209,-38.4707
907,250520,89.34,"(85, 90]",5,250520,Cuitegi,-6.89058,-35.5215
908,230100,89.33,"(85, 90]",5,230100,Aquiraz,-3.89929,-38.3896
909,330600,89.33,"(85, 90]",5,330600,Três Rios,-22.1165,-43.2185
910,350980,89.32,"(85, 90]",5,350980,Campos Novos Paulista,-22.602,-49.9987
911,431225,89.31,"(85, 90]",5,431225,Minas do Leão,-30.1346,-52.0423
912,411295,89.31,"(85, 90]",5,411295,Juranda,-24.4209,-52.8413
913,260690,89.31,"(85, 90]",5,260690,Iguaracy,-7.83222,-37.5082
914,411200,89.31,"(85, 90]",5,411200,Jaguariaíva,-24.2439,-49.7066
915,411500,89.31,"(85, 90]",5,411500,Marilena,-22.7336,-53.0402
916,412200,89.31,"(85, 90]",5,412200,Rio Azul,-25.7306,-50.7985
917,420510,89.3,"(85, 90]",5,420510,Dona Emma,-26.981,-49.7261
918,293150,89.3,"(85, 90]",5,293150,Teofilândia,-11.4827,-38.9913
919,510719,89.3,"(85, 90]",5,510719,Ribeirãozinho,-16.4856,-52.6924
920,411573,89.3,"(85, 90]",5,411573,Mato Rico,-24.6995,-52.1454
921,240790,89.29,"(85, 90]",5,240790,Monte das Gameleiras,-6.43698,-35.7831
922,431790,89.29,"(85, 90]",5,431790,Santo Cristo,-27.8263,-54.662
923,230393,89.29,"(85, 90]",5,230393,Choró,-4.83906,-39.1344
924,221040,89.28,"(85, 90]",5,221040,São Miguel do Tapuio,-5.49729,-41.3165
925,412535,89.28,"(85, 90]",5,412535,São Jorge do Patrocínio,-23.7647,-53.8823
926,250050,89.27,"(85, 90]",5,250050,Alagoinha,-6.94657,-35.5332
927,410250,89.27,"(85, 90]",5,410250,Barbosa Ferraz,-24.0334,-52.004
928,220887,89.27,"(85, 90]",5,220887,Ribeira do Piauí,-7.69028,-42.7128
929,410750,89.26,"(85, 90]",5,410750,Engenheiro Beltrão,-23.797,-52.2659
930,292420,89.26,"(85, 90]",5,292420,Pedro Alexandre,-10.012,-37.8932
931,211070,89.25,"(85, 90]",5,211070,São Domingos do Maranhão,-5.58095,-44.3822
932,420208,89.25,"(85, 90]",5,420208,Bandeirante,-26.7705,-53.6413
933,510285,89.24,"(85, 90]",5,510285,Castanheira,-11.1251,-58.6081
934,291500,89.24,"(85, 90]",5,291500,Itaeté,-12.9831,-40.9677
935,260800,89.23,"(85, 90]",5,260800,Jataúba,-7.97668,-36.4943
936,280050,89.23,"(85, 90]",5,280050,Areia Branca,-10.758,-37.3251
937,220710,89.23,"(85, 90]",5,220710,Olho D'Água do Piauí,-5.84125,-42.5594
938,410845,89.23,"(85, 90]",5,410845,Foz do Jordão,-25.7371,-52.1188
939,292275,89.23,"(85, 90]",5,292275,Nova Ibiá,-13.812,-39.6182
940,350720,89.23,"(85, 90]",5,350720,Borá,-22.2696,-50.5409
941,350760,89.22,"(85, 90]",5,350760,Bragança Paulista,-22.9527,-46.5419
942,251000,89.22,"(85, 90]",5,251000,Nazarezinho,-6.9114,-38.322
943,316700,89.22,"(85, 90]",5,316700,Serranos,-21.8857,-44.5125
944,350130,89.21,"(85, 90]",5,350130,Álvares Machado,-22.0764,-51.4722
945,310240,89.19,"(85, 90]",5,310240,Alvorada de Minas,-18.7334,-43.3638
946,250330,89.18,"(85, 90]",5,250330,Cachoeira dos Índios,-6.91353,-38.676
947,251220,89.18,"(85, 90]",5,251220,Prata,-7.68826,-37.0801
948,431517,89.18,"(85, 90]",5,431517,Protásio Alves,-28.7572,-51.4757
949,250535,89.18,"(85, 90]",5,250535,Damião,-6.63161,-35.9101
950,240910,89.18,"(85, 90]",5,240910,Passa e Fica,-6.43018,-35.6442
951,150340,89.17,"(85, 90]",5,150340,Inhangapi,-1.4349,-47.9114
952,421310,89.17,"(85, 90]",5,421310,Piratuba,-27.4242,-51.7668
953,231325,89.17,"(85, 90]",5,231325,Tarrafas,-6.67838,-39.753
954,150490,89.17,"(85, 90]",5,150490,Muaná,-1.53936,-49.2224
955,291300,89.17,"(85, 90]",5,291300,Ibitiara,-12.6502,-42.2179
956,510279,89.16,"(85, 90]",5,510279,Carlinda,-9.94912,-55.8417
957,431030,89.16,"(85, 90]",5,431030,Ilópolis,-28.9282,-52.1258
958,411780,89.16,"(85, 90]",5,411780,Palmital,-24.8853,-52.2029
959,355570,89.14,"(85, 90]",5,355570,União Paulista,-20.8862,-49.9025
960,350430,89.13,"(85, 90]",5,350430,Avaí,-22.1514,-49.3356
961,352420,89.13,"(85, 90]",5,352420,Jaborandi,-20.6884,-48.4112
962,430786,89.13,"(85, 90]",5,430786,Fagundes Varela,-28.8794,-51.7014
963,312280,89.12,"(85, 90]",5,312280,Dom Viçoso,-22.2511,-45.1643
964,311730,89.12,"(85, 90]",5,311730,Conceição das Alagoas,-19.9172,-48.3839
965,410460,89.11,"(85, 90]",5,410460,Capitão Leônidas Marques,-25.4816,-53.6112
966,220695,89.11,"(85, 90]",5,220695,Novo Santo Antônio,-5.28749,-41.9325
967,313990,89.11,"(85, 90]",5,313990,Maria da Fé,-22.3044,-45.3773
968,313790,89.1,"(85, 90]",5,313790,Lamim,-20.79,-43.4706
969,261520,89.1,"(85, 90]",5,261520,Terra Nova,-8.22244,-39.3825
970,316530,89.1,"(85, 90]",5,316530,São Vicente de Minas,-21.7042,-44.4431
971,432030,89.1,"(85, 90]",5,432030,Selbach,-28.6294,-52.9498
972,315570,89.09,"(85, 90]",5,315570,Rio Piracicaba,-19.9284,-43.1829
973,291185,89.08,"(85, 90]",5,291185,Heliópolis,-10.6825,-38.2907
974,172093,89.08,"(85, 90]",5,172093,Taipas do Tocantins,-12.1873,-46.9797
975,431070,89.08,"(85, 90]",5,431070,Itatiba do Sul,-27.3846,-52.4538
976,290340,89.08,"(85, 90]",5,290340,Belmonte,-15.8608,-38.8758
977,313350,89.08,"(85, 90]",5,313350,Itapecerica,-20.4704,-45.127
978,231135,89.07,"(85, 90]",5,231135,Quixelô,-6.24637,-39.2011
979,280280,89.07,"(85, 90]",5,280280,Indiaroba,-11.5157,-37.515
980,150285,89.07,"(85, 90]",5,150285,Curuá,-1.88775,-55.1168
981,411880,89.06,"(85, 90]",5,411880,Peabiru,-23.914,-52.3431
982,210240,89.06,"(85, 90]",5,210240,Cajapió,-2.87326,-44.6741
983,292520,89.06,"(85, 90]",5,292520,Pojuca,-12.4303,-38.3374
984,220272,89.05,"(85, 90]",5,220272,Cocal dos Alves,-3.62047,-41.4402
985,260250,89.04,"(85, 90]",5,260250,Brejinho,-7.34694,-37.2865
986,230850,89.04,"(85, 90]",5,230850,Mombaça,-5.73844,-39.63
987,250340,89.03,"(85, 90]",5,250340,Cacimba de Areia,-7.12128,-37.1563
988,410450,89.03,"(85, 90]",5,410450,Capanema,-25.6691,-53.8055
989,410770,89.03,"(85, 90]",5,410770,Fênix,-23.9135,-51.9805
990,312087,89.03,"(85, 90]",5,312087,Curral de Dentro,-15.9327,-41.8557
991,251160,89.02,"(85, 90]",5,251160,Pilões,-6.86827,-35.613
992,353220,89.02,"(85, 90]",5,353220,Narandiba,-22.4057,-51.5274
993,510710,89.02,"(85, 90]",5,510710,São José dos Quatro Marcos,-15.6276,-58.1772
994,310163,89.02,"(85, 90]",5,310163,Alfredo Vasconcelos,-21.1535,-43.7718
995,411390,89.01,"(85, 90]",5,411390,Mallet,-25.8806,-50.8173
996,251398,89.01,"(85, 90]",5,251398,São Francisco,-6.60773,-38.0968
997,353630,89.0,"(85, 90]",5,353630,Patrocínio Paulista,-20.6384,-47.2801
998,355340,89.0,"(85, 90]",5,355340,Tanabi,-20.6228,-49.6563
999,355385,89.0,"(85, 90]",5,355385,Taquarivaí,-23.9211,-48.6948
1000,313430,88.99,"(85, 90]",5,313430,Itumirim,-21.3171,-44.8724
1001,330430,88.99,"(85, 90]",5,330430,Rio Bonito,-22.7181,-42.6276
1002,352070,88.99,"(85, 90]",5,352070,Indiaporã,-19.979,-50.2909
1003,412150,88.98,"(85, 90]",5,412150,Rebouças,-25.6232,-50.6877
1004,292590,88.98,"(85, 90]",5,292590,Quijingue,-10.7505,-39.2137
1005,312700,88.96,"(85, 90]",5,312700,Fronteira,-20.2748,-49.1984
1006,431980,88.96,"(85, 90]",5,431980,São Vicente do Sul,-29.6882,-54.6826
1007,210083,88.95,"(85, 90]",5,210083,Apicum-Açu,-1.45862,-45.0864
1008,291380,88.95,"(85, 90]",5,291380,Ipecaetá,-12.3028,-39.3069
1009,522100,88.94,"(85, 90]",5,522100,Taquaral de Goiás,-16.0521,-49.6039
1010,220720,88.94,"(85, 90]",5,220720,Padre Marcos,-7.35101,-40.8997
1011,171500,88.94,"(85, 90]",5,171500,Nova Rosalândia,-10.5651,-48.9125
1012,220040,88.94,"(85, 90]",5,220040,Altos,-5.03888,-42.4612
1013,351220,88.94,"(85, 90]",5,351220,Conchal,-22.3375,-47.1729
1014,260310,88.94,"(85, 90]",5,260310,Cachoeirinha,-8.48668,-36.2402
1015,230480,88.93,"(85, 90]",5,230480,Granjeiro,-6.88134,-39.2144
1016,411540,88.93,"(85, 90]",5,411540,Marmeleiro,-26.1472,-53.0267
1017,350460,88.93,"(85, 90]",5,350460,Bady Bassitt,-20.9197,-49.4385
1018,220987,88.93,"(85, 90]",5,220987,São João da Fronteira,-3.95497,-41.2569
1019,510610,88.92,"(85, 90]",5,510610,Nossa Senhora do Livramento,-15.772,-56.3432
1020,210410,88.92,"(85, 90]",5,210410,Fortaleza dos Nogueiras,-6.95983,-46.1749
1021,211160,88.92,"(85, 90]",5,211160,São Raimundo das Mangabeiras,-7.02183,-45.4809
1022,280470,88.91,"(85, 90]",5,280470,Nossa Senhora de Lourdes,-10.0772,-37.0615
1023,251207,88.91,"(85, 90]",5,251207,Poço de José de Moura,-6.56401,-38.5111
1024,352540,88.91,"(85, 90]",5,352540,Jeriquara,-20.3116,-47.5918
1025,420395,88.9,"(85, 90]",5,420395,Capivari de Baixo,-28.4498,-48.9631
1026,330280,88.9,"(85, 90]",5,330280,Mendes,-22.5245,-43.7312
1027,171215,88.9,"(85, 90]",5,171215,Lavandeira,-12.7847,-46.5099
1028,241100,88.9,"(85, 90]",5,241100,Rodolfo Fernandes,-5.78393,-38.0579
1029,431040,88.9,"(85, 90]",5,431040,Independência,-27.8354,-54.1886
1030,240760,88.9,"(85, 90]",5,240760,Messias Targino,-6.07194,-37.5158
1031,240210,88.9,"(85, 90]",5,240210,Campo Redondo,-6.23829,-36.1888
1032,220320,88.9,"(85, 90]",5,220320,Curimatá,-10.0326,-44.3002
1033,230070,88.9,"(85, 90]",5,230070,Alto Santo,-5.50894,-38.2743
1034,220191,88.89,"(85, 90]",5,220191,Bom Princípio do Piauí,-3.19631,-41.6403
1035,230380,88.89,"(85, 90]",5,230380,Cedro,-6.60034,-39.0609
1036,521270,88.89,"(85, 90]",5,521270,Mambaí,-14.4823,-46.1165
1037,350030,88.89,"(85, 90]",5,350030,Aguaí,-22.0572,-46.9735
1038,412040,88.89,"(85, 90]",5,412040,Presidente Castelo Branco,-23.2782,-52.1536
1039,430512,88.88,"(85, 90]",5,430512,Cerrito,-31.8419,-52.8004
1040,420775,88.88,"(85, 90]",5,420775,Iraceminha,-26.8215,-53.2767
1041,410630,88.88,"(85, 90]",5,410630,Corbélia,-24.7971,-53.3006
1042,280220,88.87,"(85, 90]",5,280220,Feira Nova,-10.2616,-37.3147
1043,290520,88.87,"(85, 90]",5,290520,Caetité,-14.0684,-42.4861
1044,280300,88.87,"(85, 90]",5,280300,Itabaianinha,-11.2693,-37.7875
1045,241030,88.87,"(85, 90]",5,241030,Serra Caiada,-6.10478,-35.7113
1046,410725,88.86,"(85, 90]",5,410725,Douradina,-23.3807,-53.2918
1047,280190,88.86,"(85, 90]",5,280190,Cumbe,-10.352,-37.1846
1048,431395,88.86,"(85, 90]",5,431395,Pantano Grande,-30.1902,-52.3729
1049,221130,88.86,"(85, 90]",5,221130,Valença do Piauí,-6.40301,-41.7375
1050,351110,88.86,"(85, 90]",5,351110,Catanduva,-21.1314,-48.977
1051,270135,88.85,"(85, 90]",5,270135,Campestre,-8.84723,-35.5685
1052,354910,88.85,"(85, 90]",5,354910,São João da Boa Vista,-21.9707,-46.7944
1053,421860,88.85,"(85, 90]",5,421860,Trombudo Central,-27.3033,-49.793
1054,130090,88.85,"(85, 90]",5,130090,Canutama,-6.52582,-64.3953
1055,411800,88.85,"(85, 90]",5,411800,Paraíso do Norte,-23.2824,-52.6054
1056,522015,88.84,"(85, 90]",5,522015,São Luiz do Norte,-14.8608,-49.3285
1057,210650,88.84,"(85, 90]",5,210650,Matinha,-3.09849,-45.035
1058,411010,88.84,"(85, 90]",5,411010,Imbituva,-25.2285,-50.5989
1059,310860,88.84,"(85, 90]",5,310860,Brasília de Minas,-16.2104,-44.4299
1060,230690,88.84,"(85, 90]",5,230690,Jaguaribe,-5.90213,-38.6227
1061,240970,88.84,"(85, 90]",5,240970,Pedro Avelino,-5.5161,-36.3867
1062,421060,88.84,"(85, 90]",5,421060,Massaranduba,-26.6109,-49.0054
1063,231195,88.84,"(85, 90]",5,231195,Salitre,-7.28398,-40.45
1064,315370,88.84,"(85, 90]",5,315370,Quartel Geral,-19.2703,-45.5569
1065,354850,88.84,"(85, 90]",5,354850,Santos,-23.9535,-46.335
1066,430900,88.83,"(85, 90]",5,430900,Giruá,-28.0297,-54.3517
1067,220665,88.83,"(85, 90]",5,220665,Morro Cabeça no Tempo,-9.71891,-43.9072
1068,240430,88.82,"(85, 90]",5,240430,Governador Dix-Sept Rosado,-5.44887,-37.5183
1069,315070,88.81,"(85, 90]",5,315070,Pirajuba,-19.9092,-48.7027
1070,351680,88.8,"(85, 90]",5,351680,Gastão Vidigal,-20.7948,-50.1912
1071,314840,88.8,"(85, 90]",5,314840,Paulistas,-18.4276,-42.8628
1072,240680,88.79,"(85, 90]",5,240680,Lajes Pintadas,-6.14943,-36.1171
1073,431041,88.79,"(85, 90]",5,431041,Inhacorá,-27.8752,-54.015
1074,280740,88.79,"(85, 90]",5,280740,Tobias Barreto,-11.1798,-37.9995
1075,210565,88.79,"(85, 90]",5,210565,Junco do Maranhão,-1.83888,-46.09
1076,311530,88.79,"(85, 90]",5,311530,Cataguases,-21.3924,-42.6896
1077,351120,88.78,"(85, 90]",5,351120,Catiguá,-21.0519,-49.0616
1078,510677,88.78,"(85, 90]",5,510677,Porto Alegre do Norte,-10.8761,-51.6357
1079,240870,88.78,"(85, 90]",5,240870,Paraú,-5.76893,-37.1032
1080,210800,88.78,"(85, 90]",5,210800,Pastos Bons,-6.60296,-44.0745
1081,220005,88.78,"(85, 90]",5,220005,Acauã,-8.21954,-41.0831
1082,421960,88.78,"(85, 90]",5,421960,Xavantina,-27.0667,-52.343
1083,240180,88.78,"(85, 90]",5,240180,Brejinho,-6.18566,-35.3591
1084,310250,88.77,"(85, 90]",5,310250,Amparo do Serra,-20.5051,-42.8009
1085,510757,88.77,"(85, 90]",5,510757,Rondolândia,-10.8376,-61.4697
1086,412217,88.77,"(85, 90]",5,412217,Rio Branco do Ivaí,-24.3244,-51.3187
1087,292370,88.77,"(85, 90]",5,292370,Paratinga,-12.687,-43.1798
1088,293230,88.77,"(85, 90]",5,293230,Ubatã,-14.2063,-39.5207
1089,130180,88.77,"(85, 90]",5,130180,Ipixuna,-7.04791,-71.6934
1090,220010,88.77,"(85, 90]",5,220010,Agricolândia,-5.79676,-42.6664
1091,430050,88.76,"(85, 90]",5,430050,Alpestre,-27.2502,-53.0341
1092,230080,88.76,"(85, 90]",5,230080,Antonina do Norte,-6.76919,-39.987
1093,220030,88.75,"(85, 90]",5,220030,Alto Longá,-5.25634,-42.2096
1094,230390,88.75,"(85, 90]",5,230390,Chaval,-3.03571,-41.2435
1095,220930,88.73,"(85, 90]",5,220930,Santa Luz,-8.9488,-44.1296
1096,431413,88.73,"(85, 90]",5,431413,Paulo Bento,-27.7051,-52.4169
1097,231140,88.72,"(85, 90]",5,231140,Quixeramobim,-5.19067,-39.2889
1098,230740,88.72,"(85, 90]",5,230740,Jucás,-6.51523,-39.5187
1099,230750,88.71,"(85, 90]",5,230750,Lavras da Mangabeira,-6.7448,-38.9706
1100,352830,88.7,"(85, 90]",5,352830,Magda,-20.6445,-50.2305
1101,240820,88.7,"(85, 90]",5,240820,Nísia Floresta,-6.09329,-35.1991
1102,431242,88.7,"(85, 90]",5,431242,Mormaço,-28.6968,-52.6999
1103,310430,88.7,"(85, 90]",5,310430,Areado,-21.3572,-46.1421
1104,520710,88.7,"(85, 90]",5,520710,Diorama,-16.2329,-51.2543
1105,431120,88.69,"(85, 90]",5,431120,Júlio de Castilhos,-29.2299,-53.6772
1106,411360,88.69,"(85, 90]",5,411360,Lobato,-23.0058,-51.9524
1107,352725,88.69,"(85, 90]",5,352725,Lourdes,-20.966,-50.2263
1108,270490,88.69,"(85, 90]",5,270490,Mar Vermelho,-9.44739,-36.3881
1109,312570,88.68,"(85, 90]",5,312570,Felixlândia,-18.7507,-44.9004
1110,290010,88.68,"(85, 90]",5,290010,Abaíra,-13.2488,-41.6619
1111,420080,88.68,"(85, 90]",5,420080,Anchieta,-26.5382,-53.3319
1112,312000,88.67,"(85, 90]",5,312000,Córrego Novo,-19.8361,-42.3988
1113,240380,88.67,"(85, 90]",5,240380,Florânia,-6.12264,-36.8226
1114,220840,88.67,"(85, 90]",5,220840,Piripiri,-4.27157,-41.7716
1115,231260,88.67,"(85, 90]",5,231260,São Luís do Curu,-3.66976,-39.2391
1116,170510,88.67,"(85, 90]",5,170510,Chapada da Natividade,-11.6175,-47.7486
1117,520990,88.66,"(85, 90]",5,520990,Iaciara,-14.1011,-46.6335
1118,312707,88.66,"(85, 90]",5,312707,Fruta de Leite,-16.1225,-42.5288
1119,170755,88.66,"(85, 90]",5,170755,Fátima,-10.7603,-48.9076
1120,314660,88.66,"(85, 90]",5,314660,Paiva,-21.2913,-43.4088
1121,317065,88.65,"(85, 90]",5,317065,Vargem Grande do Rio Pardo,-15.3987,-42.3085
1122,350530,88.65,"(85, 90]",5,350530,Barra Bonita,-22.4909,-48.5583
1123,220330,88.65,"(85, 90]",5,220330,Demerval Lobão,-5.35875,-42.6776
1124,120070,88.65,"(85, 90]",5,120070,Xapuri,-10.6516,-68.4969
1125,354670,88.65,"(85, 90]",5,354670,Santa Gertrudes,-22.4572,-47.5272
1126,430597,88.65,"(85, 90]",5,430597,Coxilha,-28.128,-52.3023
1127,430605,88.64,"(85, 90]",5,430605,Cristal,-31.0046,-52.0436
1128,510345,88.63,"(85, 90]",5,510345,Denise,-14.7324,-57.0583
1129,412160,88.62,"(85, 90]",5,412160,Renascença,-26.1588,-52.9703
1130,260240,88.62,"(85, 90]",5,260240,Brejão,-9.02915,-36.566
1131,310530,88.61,"(85, 90]",5,310530,Bandeira do Sul,-21.7308,-46.3833
1132,230655,88.61,"(85, 90]",5,230655,Itarema,-2.9248,-39.9167
1133,520085,88.61,"(85, 90]",5,520085,Americano do Brasil,-16.2514,-49.9831
1134,421360,88.61,"(85, 90]",5,421360,Porto União,-26.2451,-51.0759
1135,310920,88.6,"(85, 90]",5,310920,Buenópolis,-17.8744,-44.1775
1136,500270,88.6,"(85, 90]",5,500270,Campo Grande,-20.4486,-54.6295
1137,421715,88.6,"(85, 90]",5,421715,São Miguel da Boa Vista,-26.687,-53.2511
1138,520350,88.6,"(85, 90]",5,520350,Bom Jesus de Goiás,-18.2173,-49.74
1139,290360,88.6,"(85, 90]",5,290360,Biritinga,-11.6072,-38.8051
1140,130170,88.59,"(85, 90]",5,130170,Humaitá,-7.51171,-63.0327
1141,210580,88.59,"(85, 90]",5,210580,Lago do Junco,-4.609,-45.049
1142,312920,88.59,"(85, 90]",5,312920,Heliodora,-22.0644,-45.5453
1143,314655,88.58,"(85, 90]",5,314655,Pai Pedro,-15.5271,-43.07
1144,420417,88.58,"(85, 90]",5,420417,Cerro Negro,-27.7942,-50.8673
1145,221000,88.58,"(85, 90]",5,221000,São João do Piauí,-8.35466,-42.2559
1146,430513,88.57,"(85, 90]",5,430513,Cerro Branco,-29.657,-52.9406
1147,220177,88.57,"(85, 90]",5,220177,Boa Hora,-4.41404,-42.1357
1148,430537,88.56,"(85, 90]",5,430537,Charrua,-27.9493,-52.015
1149,412510,88.56,"(85, 90]",5,412510,São João do Triunfo,-25.683,-50.2949
1150,120038,88.56,"(85, 90]",5,120038,Plácido de Castro,-10.2806,-67.1371
1151,354310,88.56,"(85, 90]",5,354310,Ribeirão Corrente,-20.4579,-47.5904
1152,250590,88.55,"(85, 90]",5,250590,Emas,-7.09964,-37.7163
1153,411310,88.55,"(85, 90]",5,411310,Kaloré,-23.8188,-51.6687
1154,280580,88.54,"(85, 90]",5,280580,Riachão do Dantas,-11.0729,-37.731
1155,210409,88.54,"(85, 90]",5,210409,Formosa da Serra Negra,-6.44017,-46.1916
1156,412855,88.54,"(85, 90]",5,412855,Vera Cruz do Oeste,-25.0577,-53.8771
1157,270610,88.54,"(85, 90]",5,270610,Ouro Branco,-9.15884,-37.3556
1158,250010,88.53,"(85, 90]",5,250010,Água Branca,-7.51144,-37.6357
1159,411520,88.53,"(85, 90]",5,411520,Maringá,-23.4205,-51.9333
1160,313900,88.52,"(85, 90]",5,313900,Machado,-21.6778,-45.9219
1161,316370,88.52,"(85, 90]",5,316370,São Lourenço,-22.1166,-45.0506
1162,350350,88.52,"(85, 90]",5,350350,Areias,-22.5786,-44.6992
1163,251410,88.52,"(85, 90]",5,251410,São João do Tigre,-8.07703,-36.8547
1164,240630,88.51,"(85, 90]",5,240630,Lagoa de Pedras,-6.15082,-35.4299
1165,260470,88.51,"(85, 90]",5,260470,Correntes,-9.12117,-36.3244
1166,420445,88.51,"(85, 90]",5,420445,Coronel Martins,-26.511,-52.6694
1167,291690,88.51,"(85, 90]",5,291690,Itiruçu,-13.529,-40.1472
1168,316560,88.51,"(85, 90]",5,316560,Senador Cortes,-21.7986,-42.9424
1169,412490,88.51,"(85, 90]",5,412490,São João do Caiuá,-22.8535,-52.3411
1170,170210,88.5,"(85, 90]",5,170210,Araguaína,-7.19238,-48.2044
1171,260530,88.5,"(85, 90]",5,260530,Exu,-7.50364,-39.7238
1172,352920,88.5,"(85, 90]",5,352920,Martinópolis,-22.1462,-51.1709
1173,411745,88.5,"(85, 90]",5,411745,Ouro Verde do Oeste,-24.7933,-53.9043
1174,420210,88.49,"(85, 90]",5,420210,Barra Velha,-26.637,-48.6933
1175,432340,88.49,"(85, 90]",5,432340,Vila Maria,-28.5359,-52.1486
1176,290430,88.49,"(85, 90]",5,290430,Brejões,-13.1039,-39.7988
1177,230320,88.48,"(85, 90]",5,230320,Caririaçu,-7.02808,-39.2828
1178,220420,88.48,"(85, 90]",5,220420,Francisco Santos,-6.99491,-41.1288
1179,412770,88.48,"(85, 90]",5,412770,Toledo,-24.7246,-53.7412
1180,430680,88.47,"(85, 90]",5,430680,Encantado,-29.2351,-51.8703
1181,270080,88.47,"(85, 90]",5,270080,Belém,-9.57047,-36.4904
1182,241335,88.47,"(85, 90]",5,241335,Serra do Mel,-5.17725,-37.0242
1183,354770,88.47,"(85, 90]",5,354770,Santo Anastácio,-21.9747,-51.6527
1184,313657,88.47,"(85, 90]",5,313657,Josenópolis,-16.5417,-42.5151
1185,261430,88.46,"(85, 90]",5,261430,Moreilândia,-7.61931,-39.546
1186,410760,88.46,"(85, 90]",5,410760,Faxinal,-24.0077,-51.3227
1187,500230,88.46,"(85, 90]",5,500230,Brasilândia,-21.2544,-52.0365
1188,241142,88.46,"(85, 90]",5,241142,Santana do Seridó,-6.76643,-36.7312
1189,260630,88.45,"(85, 90]",5,260630,Granito,-7.70711,-39.615
1190,170105,88.45,"(85, 90]",5,170105,Angico,-6.39179,-47.8611
1191,231080,88.44,"(85, 90]",5,231080,Pereiro,-6.03576,-38.4624
1192,220785,88.43,"(85, 90]",5,220785,Pavussu,-7.96059,-43.2284
1193,220095,88.42,"(85, 90]",5,220095,Aroeiras do Itaim,-7.24502,-41.5325
1194,411375,88.42,"(85, 90]",5,411375,Lunardelli,-24.0821,-51.7368
1195,314080,88.42,"(85, 90]",5,314080,Matias Barbosa,-21.869,-43.3135
1196,432070,88.41,"(85, 90]",5,432070,Sobradinho,-29.4194,-53.0326
1197,241090,88.41,"(85, 90]",5,241090,Riachuelo,-5.82156,-35.8215
1198,231230,88.41,"(85, 90]",5,231230,São Benedito,-4.04713,-40.8596
1199,230425,88.41,"(85, 90]",5,230425,Cruz,-2.91813,-40.176
1200,260480,88.4,"(85, 90]",5,260480,Cortês,-8.47443,-35.5468
1201,291730,88.4,"(85, 90]",5,291730,Ituberá,-13.7249,-39.1481
1202,210600,88.4,"(85, 90]",5,210600,Lima Campos,-4.51837,-44.4646
1203,130150,88.4,"(85, 90]",5,130150,Envira,-7.43789,-70.0281
1204,431190,88.4,"(85, 90]",5,431190,Marcelino Ramos,-27.4676,-51.9095
1205,231335,88.4,"(85, 90]",5,231335,Tejuçuoca,-3.98831,-39.5799
1206,290850,88.4,"(85, 90]",5,290850,Conceição do Jacuípe,-12.3268,-38.7684
1207,210340,88.39,"(85, 90]",5,210340,Coelho Neto,-4.25245,-43.0108
1208,420765,88.39,"(85, 90]",5,420765,Iporã do Oeste,-26.9854,-53.5355
1209,410275,88.39,"(85, 90]",5,410275,Bela Vista da Caroba,-25.8842,-53.6725
1210,351400,88.38,"(85, 90]",5,351400,Dobrada,-21.5155,-48.3935
1211,500450,88.38,"(85, 90]",5,500450,Itaporã,-22.08,-54.7934
1212,290910,88.37,"(85, 90]",5,290910,Coribe,-13.8232,-44.4586
1213,351385,88.37,"(85, 90]",5,351385,Dirce Reis,-20.4642,-50.6073
1214,353960,88.37,"(85, 90]",5,353960,Planalto,-21.0342,-49.933
1215,221039,88.37,"(85, 90]",5,221039,São Miguel do Fidalgo,-7.59713,-42.3676
1216,431795,88.36,"(85, 90]",5,431795,Santo Expedito do Sul,-27.9074,-51.6434
1217,230930,88.36,"(85, 90]",5,230930,Nova Russas,-4.70581,-40.5621
1218,210520,88.36,"(85, 90]",5,210520,Igarapé Grande,-4.6625,-44.8558
1219,240600,88.36,"(85, 90]",5,240600,José da Penha,-6.31095,-38.2823
1220,313330,88.36,"(85, 90]",5,313330,Itaobim,-16.5571,-41.5017
1221,291990,88.35,"(85, 90]",5,291990,Macururé,-9.16226,-39.0518
1222,431937,88.35,"(85, 90]",5,431937,São Pedro do Butiá,-28.1243,-54.8926
1223,230970,88.34,"(85, 90]",5,230970,Pacatuba,-3.9784,-38.6183
1224,280550,88.33,"(85, 90]",5,280550,Poço Verde,-10.7151,-38.1813
1225,320050,88.33,"(85, 90]",5,320050,Apiacá,-21.1523,-41.5693
1226,431642,88.33,"(85, 90]",5,431642,Sagrada Família,-27.7085,-53.1351
1227,251365,88.33,"(85, 90]",5,251365,Joca Claudino,-6.48362,-38.4764
1228,352700,88.33,"(85, 90]",5,352700,Lindóia,-22.5226,-46.65
1229,352110,88.33,"(85, 90]",5,352110,Ipeúna,-22.4355,-47.7151
1230,312230,88.32,"(85, 90]",5,312230,Divinópolis,-20.1446,-44.8912
1231,355090,88.32,"(85, 90]",5,355090,São Simão,-21.4732,-47.5518
1232,510490,88.31,"(85, 90]",5,510490,Jangada,-15.235,-56.4917
1233,316570,88.31,"(85, 90]",5,316570,Senador Firmino,-20.9158,-43.0904
1234,292160,88.3,"(85, 90]",5,292160,Morpará,-11.5569,-43.2766
1235,231290,88.3,"(85, 90]",5,231290,Sobral,-3.68913,-40.3482
1236,431125,88.3,"(85, 90]",5,431125,Lagoão,-29.2348,-52.7997
1237,522220,88.3,"(85, 90]",5,522220,Vila Boa,-15.0387,-47.052
1238,291160,88.3,"(85, 90]",5,291160,Governador Mangabeira,-12.5994,-39.0412
1239,311680,88.3,"(85, 90]",5,311680,Coluna,-18.2311,-42.8352
1240,261247,88.29,"(85, 90]",5,261247,Santa Cruz da Baixa Verde,-7.81339,-38.1476
1241,220117,88.29,"(85, 90]",5,220117,Barra D'Alcântara,-6.51645,-42.1146
1242,310020,88.29,"(85, 90]",5,310020,Abaeté,-19.1551,-45.4444
1243,210720,88.29,"(85, 90]",5,210720,Nina Rodrigues,-3.46788,-43.9134
1244,353460,88.28,"(85, 90]",5,353460,Osvaldo Cruz,-21.7968,-50.8793
1245,330040,88.28,"(85, 90]",5,330040,Barra Mansa,-22.5481,-44.1752
1246,354180,88.28,"(85, 90]",5,354180,Queiroz,-21.7969,-50.2415
1247,411373,88.28,"(85, 90]",5,411373,Luiziana,-24.2853,-52.269
1248,220045,88.28,"(85, 90]",5,220045,Alvorada do Gurguéia,-8.42418,-43.777
1249,251030,88.28,"(85, 90]",5,251030,Nova Palmeira,-6.67122,-36.422
1250,351760,88.27,"(85, 90]",5,351760,Guapiara,-24.1892,-48.5295
1251,521210,88.26,"(85, 90]",5,521210,Joviânia,-17.802,-49.6197
1252,353020,88.26,"(85, 90]",5,353020,Mirante do Paranapanema,-22.2904,-51.9084
1253,410405,88.26,"(85, 90]",5,410405,Campo Bonito,-25.0294,-52.9939
1254,210745,88.25,"(85, 90]",5,210745,Olinda Nova do Maranhão,-2.99295,-44.9897
1255,330180,88.24,"(85, 90]",5,330180,Engenheiro Paulo de Frontin,-22.5498,-43.6827
1256,320255,88.24,"(85, 90]",5,320255,Ibitirama,-20.5466,-41.6667
1257,411490,88.23,"(85, 90]",5,411490,Marilândia do Sul,-23.7425,-51.3137
1258,290790,88.23,"(85, 90]",5,290790,Cipó,-11.1032,-38.5179
1259,420030,88.23,"(85, 90]",5,420030,Agronômica,-27.2662,-49.708
1260,432120,88.23,"(85, 90]",5,432120,Taquara,-29.6505,-50.7753
1261,313310,88.23,"(85, 90]",5,313310,Itanhandu,-22.2942,-44.9382
1262,353320,88.22,"(85, 90]",5,353320,Nova Independência,-21.1026,-51.4905
1263,171890,88.22,"(85, 90]",5,171890,Santa Rosa do Tocantins,-11.4474,-48.1216
1264,220850,88.21,"(85, 90]",5,220850,Porto,-3.88815,-42.6998
1265,520660,88.21,"(85, 90]",5,520660,Cumari,-18.2644,-48.1511
1266,351520,88.21,"(85, 90]",5,351520,Estrela d'Oeste,-20.2875,-50.4049
1267,411155,88.2,"(85, 90]",5,411155,Ivaté,-23.4072,-53.3687
1268,210110,88.2,"(85, 90]",5,210110,Axixá,-2.83939,-44.062
1269,261170,88.2,"(85, 90]",5,261170,Riacho das Almas,-8.13742,-35.8648
1270,354630,88.2,"(85, 90]",5,354630,Santa Cruz das Palmeiras,-21.8235,-47.248
1271,220490,88.2,"(85, 90]",5,220490,Isaías Coelho,-7.73597,-41.6735
1272,261618,88.19,"(85, 90]",5,261618,Vertente do Lério,-7.77084,-35.8491
1273,350535,88.19,"(85, 90]",5,350535,Barra do Chapéu,-24.4722,-49.0238
1274,230030,88.19,"(85, 90]",5,230030,Acopiara,-6.08911,-39.448
1275,292390,88.19,"(85, 90]",5,292390,Pau Brasil,-15.4572,-39.6458
1276,421187,88.19,"(85, 90]",5,421187,Paial,-27.2541,-52.4975
1277,330460,88.18,"(85, 90]",5,330460,Santa Maria Madalena,-21.9547,-42.0098
1278,261240,88.18,"(85, 90]",5,261240,Sanharó,-8.36097,-36.5696
1279,292940,88.18,"(85, 90]",5,292940,São Miguel das Matas,-13.0434,-39.4578
1280,320170,88.18,"(85, 90]",5,320170,Conceição do Castelo,-20.3639,-41.2417
1281,420215,88.18,"(85, 90]",5,420215,Belmonte,-26.843,-53.5758
1282,313070,88.18,"(85, 90]",5,313070,Indianópolis,-19.0341,-47.9155
1283,353590,88.17,"(85, 90]",5,353590,Paranapuã,-20.1048,-50.5886
1284,421565,88.17,"(85, 90]",5,421565,Santa Rosa do Sul,-29.1313,-49.7109
1285,230870,88.17,"(85, 90]",5,230870,Morada Nova,-5.09736,-38.3702
1286,350140,88.17,"(85, 90]",5,350140,Álvaro de Carvalho,-22.0841,-49.719
1287,431237,88.17,"(85, 90]",5,431237,Monte Alegre dos Campos,-28.6805,-50.7834
1288,351510,88.16,"(85, 90]",5,351510,Embu-Guaçu,-23.8297,-46.8136
1289,290390,88.16,"(85, 90]",5,290390,Bom Jesus da Lapa,-13.2506,-43.4108
1290,250900,88.15,"(85, 90]",5,250900,Manaíra,-7.70331,-38.1523
1291,261020,88.15,"(85, 90]",5,261020,Panelas,-8.66121,-36.0125
1292,316830,88.15,"(85, 90]",5,316830,Taquaraçu de Minas,-19.6652,-43.6922
1293,241430,88.14,"(85, 90]",5,241430,Timbaúba dos Batistas,-6.45768,-37.2745
1294,150510,88.13,"(85, 90]",5,150510,Óbidos,-1.90107,-55.5208
1295,520465,88.13,"(85, 90]",5,520465,Campinaçu,-13.787,-48.5704
1296,420570,88.13,"(85, 90]",5,420570,Garopaba,-28.0275,-48.6192
1297,352710,88.13,"(85, 90]",5,352710,Lins,-21.6718,-49.7526
1298,431845,88.13,"(85, 90]",5,431845,São José das Missões,-27.7789,-53.1226
1299,330360,88.12,"(85, 90]",5,330360,Paracambi,-22.6078,-43.7108
1300,520640,88.12,"(85, 90]",5,520640,Crixás,-14.5412,-49.974
1301,250580,88.12,"(85, 90]",5,250580,Duas Estradas,-6.68499,-35.418
1302,411900,88.12,"(85, 90]",5,411900,Pérola d'Oeste,-25.8278,-53.7433
1303,292600,88.12,"(85, 90]",5,292600,Remanso,-9.61944,-42.0848
1304,260100,88.11,"(85, 90]",5,260100,Angelim,-8.88429,-36.2902
1305,353370,88.11,"(85, 90]",5,353370,Ocauçu,-22.438,-49.922
1306,261500,88.11,"(85, 90]",5,261500,Taquaritinga do Norte,-7.89446,-36.0423
1307,312380,88.11,"(85, 90]",5,312380,Engenheiro Navarro,-17.2831,-43.947
1308,172097,88.11,"(85, 90]",5,172097,Talismã,-12.7949,-49.0896
1309,521080,88.11,"(85, 90]",5,521080,Itajá,-19.0673,-51.5495
1310,411160,88.11,"(85, 90]",5,411160,Ivatuba,-23.6187,-52.2203
1311,430420,88.1,"(85, 90]",5,430420,Candelária,-29.6684,-52.7895
1312,240370,88.1,"(85, 90]",5,240370,Felipe Guerra,-5.59274,-37.6875
1313,311800,88.1,"(85, 90]",5,311800,Congonhas,-20.4958,-43.851
1314,320340,88.1,"(85, 90]",5,320340,Mimoso do Sul,-21.0628,-41.3615
1315,220080,88.09,"(85, 90]",5,220080,Antônio Almeida,-7.21276,-44.1889
1316,411050,88.09,"(85, 90]",5,411050,Ipiranga,-25.0238,-50.5794
1317,350100,88.09,"(85, 90]",5,350100,Altinópolis,-21.0214,-47.3712
1318,353715,88.09,"(85, 90]",5,353715,Pedrinhas Paulista,-22.8174,-50.7933
1319,314345,88.08,"(85, 90]",5,314345,Montezuma,-15.1702,-42.4941
1320,312880,88.08,"(85, 90]",5,312880,Guidoval,-21.155,-42.7887
1321,270830,88.08,"(85, 90]",5,270830,São José da Laje,-9.01278,-36.0515
1322,210173,88.08,"(85, 90]",5,210173,Belágua,-3.15485,-43.5122
1323,220385,88.08,"(85, 90]",5,220385,Floresta do Piauí,-7.46682,-41.7883
1324,290687,88.07,"(85, 90]",5,290687,Capim Grosso,-11.3797,-40.0089
1325,352390,88.07,"(85, 90]",5,352390,Itu,-23.2544,-47.2927
1326,421520,88.06,"(85, 90]",5,421520,Romelândia,-26.6809,-53.3172
1327,432132,88.06,"(85, 90]",5,432132,Taquaruçu do Sul,-27.4005,-53.4702
1328,221070,88.06,"(85, 90]",5,221070,Simões,-7.59109,-40.8137
1329,230526,88.06,"(85, 90]",5,230526,Ibaretama,-4.80376,-38.7501
1330,313000,88.05,"(85, 90]",5,313000,Ibituruna,-21.1541,-44.7479
1331,230465,88.05,"(85, 90]",5,230465,Graça,-4.04422,-40.749
1332,353040,88.05,"(85, 90]",5,353040,Mirassolândia,-20.6179,-49.4617
1333,410305,88.04,"(85, 90]",5,410305,Boa Vista da Aparecida,-25.4308,-53.4117
1334,316620,88.04,"(85, 90]",5,316620,Senhora dos Remédios,-21.0351,-43.5812
1335,312960,88.04,"(85, 90]",5,312960,Ibiaí,-16.8591,-44.9046
1336,160070,88.04,"(85, 90]",5,160070,Tartarugalzinho,1.50652,-50.9087
1337,316220,88.03,"(85, 90]",5,316220,São João Batista do Glória,-20.635,-46.508
1338,312675,88.03,"(85, 90]",5,312675,Franciscópolis,-17.9578,-42.0094
1339,351530,88.03,"(85, 90]",5,351530,Estrela do Norte,-22.4859,-51.6632
1340,412863,88.03,"(85, 90]",5,412863,Doutor Ulysses,-24.5665,-49.4219
1341,431110,88.03,"(85, 90]",5,431110,Jaguari,-29.4936,-54.703
1342,510360,88.03,"(85, 90]",5,510360,Dom Aquino,-15.8099,-54.9223
1343,410840,88.02,"(85, 90]",5,410840,Francisco Beltrão,-26.0817,-53.0535
1344,521205,88.02,"(85, 90]",5,521205,Jesúpolis,-15.9484,-49.3739
1345,317220,88.02,"(85, 90]",5,317220,Wenceslau Braz,-22.5368,-45.3626
1346,220780,88.02,"(85, 90]",5,220780,Paulistana,-8.13436,-41.1431
1347,311700,88.02,"(85, 90]",5,311700,Comercinho,-16.2963,-41.7945
1348,250053,88.01,"(85, 90]",5,250053,Alcantil,-7.73668,-36.0511
1349,412750,88.01,"(85, 90]",5,412750,Tibagi,-24.5153,-50.4176
1350,315810,88.0,"(85, 90]",5,315810,Santa Maria do Salto,-16.2479,-40.1512
1351,171870,88.0,"(85, 90]",5,171870,Rio dos Bois,-9.34425,-48.5245
1352,260080,88.0,"(85, 90]",5,260080,Altinho,-8.48482,-36.0644
1353,310665,88.0,"(85, 90]",5,310665,Berizal,-15.61,-41.7432
1354,431346,87.99,"(85, 90]",5,431346,Novo Xingu,-27.749,-53.0639
1355,240670,87.98,"(85, 90]",5,240670,Lajes,-5.69322,-36.247
1356,220795,87.98,"(85, 90]",5,220795,Nova Santa Rita,-8.09707,-42.0471
1357,412120,87.98,"(85, 90]",5,412120,Quitandinha,-25.8734,-49.4973
1358,411790,87.98,"(85, 90]",5,411790,Palotina,-24.2868,-53.8404
1359,292760,87.97,"(85, 90]",5,292760,Santa Brígida,-9.73227,-38.1209
1360,315760,87.97,"(85, 90]",5,315760,Santa Fé de Minas,-16.6859,-45.4102
1361,316340,87.97,"(85, 90]",5,316340,São José do Goiabal,-19.9214,-42.7035
1362,220225,87.96,"(85, 90]",5,220225,Canavieira,-7.68821,-43.7233
1363,430360,87.96,"(85, 90]",5,430360,Cambará do Sul,-29.0474,-50.1465
1364,521990,87.96,"(85, 90]",5,521990,São Francisco de Goiás,-15.9256,-49.2605
1365,310970,87.96,"(85, 90]",5,310970,Cachoeira de Minas,-22.3511,-45.7809
1366,314550,87.96,"(85, 90]",5,314550,Olímpio Noronha,-22.0685,-45.2657
1367,170330,87.96,"(85, 90]",5,170330,Bom Jesus do Tocantins,-8.96306,-48.165
1368,311090,87.96,"(85, 90]",5,311090,Campanha,-21.836,-45.4004
1369,354830,87.96,"(85, 90]",5,354830,Santo Expedito,-21.8467,-51.3929
1370,270530,87.95,"(85, 90]",5,270530,Minador do Negrão,-9.31236,-36.8696
1371,251560,87.95,"(85, 90]",5,251560,Serra da Raiz,-6.68527,-35.4379
1372,430400,87.94,"(85, 90]",5,430400,Campo Novo,-27.6792,-53.8052
1373,354720,87.94,"(85, 90]",5,354720,Santana da Ponte Pensa,-20.2523,-50.8014
1374,410110,87.94,"(85, 90]",5,410110,Andirá,-23.0533,-50.2304
1375,280240,87.94,"(85, 90]",5,280240,Gararu,-9.9722,-37.0869
1376,251340,87.94,"(85, 90]",5,251340,Santa Luzia,-6.86092,-36.9178
1377,270790,87.93,"(85, 90]",5,270790,Santa Luzia do Norte,-9.6037,-35.8232
1378,421165,87.93,"(85, 90]",5,421165,Novo Horizonte,-26.4442,-52.8281
1379,220202,87.93,"(85, 90]",5,220202,Buriti dos Montes,-5.30584,-41.0933
1380,220960,87.92,"(85, 90]",5,220960,São Félix do Piauí,-5.93485,-42.1172
1381,291850,87.91,"(85, 90]",5,291850,Jussara,-11.0431,-41.9702
1382,421910,87.91,"(85, 90]",5,421910,Vargeão,-26.8621,-52.1549
1383,312780,87.91,"(85, 90]",5,312780,Grão Mogol,-16.5662,-42.8923
1384,354920,87.9,"(85, 90]",5,354920,São João das Duas Pontes,-20.3879,-50.3792
1385,220277,87.9,"(85, 90]",5,220277,Colônia do Piauí,-7.22651,-42.1756
1386,320190,87.9,"(85, 90]",5,320190,Domingos Martins,-20.3603,-40.6594
1387,270200,87.9,"(85, 90]",5,270200,Coité do Nóia,-9.63348,-36.5845
1388,317170,87.9,"(85, 90]",5,317170,Virgínia,-22.3264,-45.0965
1389,412520,87.9,"(85, 90]",5,412520,São Jorge d'Oeste,-25.7085,-52.9204
1390,290590,87.89,"(85, 90]",5,290590,Campo Alegre de Lourdes,-9.52221,-43.0126
1391,353920,87.89,"(85, 90]",5,353920,Pirapozinho,-22.2711,-51.4976
1392,317140,87.89,"(85, 90]",5,317140,Vieiras,-20.867,-42.2401
1393,251250,87.89,"(85, 90]",5,251250,Queimadas,-7.35029,-35.9031
1394,354240,87.88,"(85, 90]",5,354240,Regente Feijó,-22.2181,-51.3055
1395,291820,87.88,"(85, 90]",5,291820,Jiquiriçá,-13.2621,-39.5737
1396,230185,87.88,"(85, 90]",5,230185,Banabuiú,-5.30454,-38.9132
1397,220755,87.88,"(85, 90]",5,220755,Paquetá,-7.10303,-41.7
1398,250200,87.88,"(85, 90]",5,250200,Belém do Brejo do Cruz,-6.18515,-37.5348
1399,293330,87.88,"(85, 90]",5,293330,Vitória da Conquista,-14.8615,-40.8442
1400,412796,87.88,"(85, 90]",5,412796,Turvo,-25.0437,-51.5282
1401,420340,87.87,"(85, 90]",5,420340,Campo Belo do Sul,-27.8975,-50.7595
1402,230460,87.87,"(85, 90]",5,230460,General Sampaio,-4.04351,-39.454
1403,352340,87.87,"(85, 90]",5,352340,Itatiba,-23.0035,-46.8464
1404,410440,87.86,"(85, 90]",5,410440,Cândido de Abreu,-24.5649,-51.3372
1405,411840,87.86,"(85, 90]",5,411840,Paranavaí,-23.0816,-52.4617
1406,251420,87.86,"(85, 90]",5,251420,São José da Lagoa Tapada,-6.93646,-38.1622
1407,352910,87.86,"(85, 90]",5,352910,Marinópolis,-20.4389,-50.8254
1408,231190,87.86,"(85, 90]",5,231190,Saboeiro,-6.5346,-39.9017
1409,421500,87.86,"(85, 90]",5,421500,Rio Negrinho,-26.2591,-49.5177
1410,500635,87.86,"(85, 90]",5,500635,Paranhos,-23.8911,-55.429
1411,221020,87.85,"(85, 90]",5,221020,São José do Piauí,-6.87194,-41.4731
1412,354790,87.85,"(85, 90]",5,354790,Santo Antônio da Alegria,-21.0864,-47.1464
1413,431670,87.84,"(85, 90]",5,431670,Santa Bárbara do Sul,-28.3653,-53.251
1414,251392,87.84,"(85, 90]",5,251392,São Bentinho,-6.88596,-37.7243
1415,292470,87.84,"(85, 90]",5,292470,Piripá,-14.9444,-41.7168
1416,411450,87.84,"(85, 90]",5,411450,Manoel Ribas,-24.5144,-51.6658
1417,211153,87.84,"(85, 90]",5,211153,São Pedro da Água Branca,-5.08472,-48.4291
1418,315053,87.83,"(85, 90]",5,315053,Pingo-d'Água,-19.7287,-42.4095
1419,354700,87.83,"(85, 90]",5,354700,Santa Maria da Serra,-22.5661,-48.1593
1420,320290,87.82,"(85, 90]",5,320290,Itarana,-19.875,-40.8753
1421,431090,87.82,"(85, 90]",5,431090,Jacutinga,-27.7291,-52.5372
1422,431843,87.82,"(85, 90]",5,431843,São João do Polêsine,-29.6194,-53.4439
1423,240725,87.82,"(85, 90]",5,240725,Major Sales,-6.39949,-38.324
1424,220779,87.81,"(85, 90]",5,220779,Pau D'Arco do Piauí,-5.26072,-42.3908
1425,431403,87.81,"(85, 90]",5,431403,Pareci Novo,-29.6365,-51.3974
1426,421840,87.81,"(85, 90]",5,421840,Treze de Maio,-28.5537,-49.1565
1427,292575,87.81,"(85, 90]",5,292575,Presidente Tancredo Neves,-13.4471,-39.4203
1428,220700,87.8,"(85, 90]",5,220700,Oeiras,-7.01915,-42.1283
1429,421755,87.8,"(85, 90]",5,421755,Serra Alta,-26.7229,-53.0409
1430,314050,87.8,"(85, 90]",5,314050,Martinho Campos,-19.3306,-45.2434
1431,292465,87.79,"(85, 90]",5,292465,Pintadas,-11.8117,-39.9009
1432,280690,87.79,"(85, 90]",5,280690,São Francisco,-10.3442,-36.8869
1433,260750,87.78,"(85, 90]",5,260750,Itaíba,-8.94569,-37.4173
1434,412780,87.78,"(85, 90]",5,412780,Tomazina,-23.7796,-49.9499
1435,315650,87.78,"(85, 90]",5,315650,Rubelita,-16.4053,-42.261
1436,150600,87.78,"(85, 90]",5,150600,Prainha,-1.798,-53.4779
1437,500375,87.77,"(85, 90]",5,500375,Eldorado,-23.7868,-54.2838
1438,210460,87.77,"(85, 90]",5,210460,Governador Eugênio Barros,-5.31897,-44.2469
1439,350055,87.76,"(85, 90]",5,350055,Águas de Santa Bárbara,-22.8812,-49.2421
1440,210170,87.76,"(85, 90]",5,210170,Barreirinhas,-2.75863,-42.8232
1441,314160,87.76,"(85, 90]",5,314160,Mercês,-21.1976,-43.3337
1442,521850,87.75,"(85, 90]",5,521850,Quirinópolis,-18.4472,-50.4547
1443,354610,87.74,"(85, 90]",5,354610,Santa Clara d'Oeste,-20.09,-50.9491
1444,410645,87.74,"(85, 90]",5,410645,Coronel Domingos Soares,-26.2277,-52.0356
1445,352030,87.74,"(85, 90]",5,352030,Iguape,-24.699,-47.5537
1446,351640,87.74,"(85, 90]",5,351640,Franco da Rocha,-23.3229,-46.729
1447,250030,87.74,"(85, 90]",5,250030,Alagoa Grande,-7.03943,-35.6206
1448,230300,87.74,"(85, 90]",5,230300,Caridade,-4.22514,-39.1912
1449,210050,87.74,"(85, 90]",5,210050,Alto Parnaíba,-9.10273,-45.9303
1450,320300,87.73,"(85, 90]",5,320300,Iúna,-20.3531,-41.5334
1451,230860,87.73,"(85, 90]",5,230860,Monsenhor Tabosa,-4.79102,-40.0646
1452,251580,87.73,"(85, 90]",5,251580,Serra Redonda,-7.18622,-35.6842
1453,330310,87.72,"(85, 90]",5,330310,Natividade,-21.039,-41.9697
1454,412130,87.72,"(85, 90]",5,412130,Rancho Alegre,-23.0676,-50.9145
1455,230640,87.72,"(85, 90]",5,230640,Itapipoca,-3.49933,-39.5836
1456,314300,87.72,"(85, 90]",5,314300,Monte Belo,-21.3271,-46.3635
1457,430390,87.72,"(85, 90]",5,430390,Campo Bom,-29.6747,-51.0606
1458,171575,87.71,"(85, 90]",5,171575,Palmeirópolis,-13.0447,-48.4026
1459,431300,87.71,"(85, 90]",5,431300,Nova Bréscia,-29.2182,-52.0319
1460,230520,87.7,"(85, 90]",5,230520,Hidrolândia,-4.40958,-40.4056
1461,430607,87.7,"(85, 90]",5,430607,Cristal do Sul,-27.452,-53.2422
1462,412460,87.7,"(85, 90]",5,412460,São Carlos do Ivaí,-23.3158,-52.4761
1463,210610,87.7,"(85, 90]",5,210610,Loreto,-7.08111,-45.1451
1464,230110,87.7,"(85, 90]",5,230110,Aracati,-4.55826,-37.7679
1465,251272,87.69,"(85, 90]",5,251272,Pedro Régis,-6.63323,-35.2966
1466,510300,87.69,"(85, 90]",5,510300,Chapada dos Guimarães,-15.4643,-55.7499
1467,520860,87.69,"(85, 90]",5,520860,Goianésia,-15.3118,-49.1162
1468,280450,87.69,"(85, 90]",5,280450,Nossa Senhora da Glória,-10.2158,-37.4211
1469,210930,87.68,"(85, 90]",5,210930,Presidente Vargas,-3.40787,-44.0234
1470,411380,87.68,"(85, 90]",5,411380,Lupionópolis,-22.755,-51.6601
1471,290440,87.68,"(85, 90]",5,290440,Brejolândia,-12.4815,-43.9679
1472,231270,87.68,"(85, 90]",5,231270,Senador Pompeu,-5.58244,-39.3704
1473,150375,87.68,"(85, 90]",5,150375,Jacareacanga,-6.21469,-57.7544
1474,220775,87.67,"(85, 90]",5,220775,Passagem Franca do Piauí,-5.86036,-42.4436
